customer_city,customer_state,lat,lon
franca,SP,-20.5352,-47.4039
sao bernardo do campo,SP,-23.6914,-46.5646
sao paulo,SP,-23.5329,-46.6395
mogi das cruzes,SP,-23.5208,-46.1854
campinas,SP,-22.9053,-47.0659
jaragua do sul,SC,-26.4851,-49.0713
timoteo,MG,-19.5811,-42.6471
curitiba,PR,-25.4195,-49.2646
belo horizonte,MG,-19.9102,-43.9266
montes claros,MG,-16.7282,-43.8578
rio de janeiro,RJ,-22.9129,-43.2003
lencois paulista,SP,-22.6027,-48.8037
caxias do sul,RS,-29.1629,-51.1792
piracicaba,SP,-22.7338,-47.6476
guarulhos,SP,-23.4538,-46.5333
pacaja,PA,-3.83542,-50.6399
florianopolis,SC,-27.5945,-48.5477
aparecida de goiania,GO,-16.8198,-49.2469
santo andre,SP,-23.6737,-46.5432
santo andre,SP,-7.22016,-36.6213
goiania,GO,-16.6864,-49.2643
cachoeiro de itapemirim,ES,-20.8462,-41.1198
sao jose dos campos,SP,-23.1896,-45.8841
sao roque,SP,-23.5226,-47.1357
camacari,BA,-12.6996,-38.3263
resende,RJ,-22.4705,-44.4509
sumare,SP,-22.8204,-47.2728
novo hamburgo,RS,-29.6875,-51.1328
sao luis,MA,-2.53874,-44.2825
sao jose,SC,-27.6136,-48.6366
santa barbara,MG,-11.9515,-38.9681
santa barbara,MG,-19.9604,-43.4101
ribeirao preto,SP,-21.1699,-47.8099
ituiutaba,MG,-18.9772,-49.4639
taquarituba,SP,-23.5307,-49.241
sao jose dos pinhais,PR,-25.5313,-49.2031
barrinha,SP,-21.1864,-48.1636
parati,RJ,,
dourados,MS,-22.2231,-54.812
trindade,GO,-16.6517,-49.4927
trindade,GO,-7.759,-40.2647
cascavel,PR,-24.9573,-53.459
cascavel,PR,-4.12967,-38.2412
fortaleza,CE,-3.71664,-38.5423
brasilia,DF,-15.7795,-47.9297
pelotas,RS,-31.7649,-52.3371
porto alegre,RS,-30.0318,-51.2065
salto,SP,-23.1996,-47.2931
jundiai,SP,-23.1852,-46.8974
cacapava,SP,-23.0992,-45.7076
sao vicente,SP,-23.9574,-46.3883
sao vicente,SP,-6.21893,-36.6827
uberlandia,MG,-18.9141,-48.2749
botelhos,MG,-21.6412,-46.391
sao goncalo,RJ,-22.8268,-43.0634
araucaria,PR,-25.5859,-49.4047
nova iguacu,RJ,-22.7556,-43.4603
areia branca,RN,-4.95254,-37.1252
areia branca,RN,-10.758,-37.3251
campos dos goytacazes,RJ,-21.7622,-41.3181
sao carlos,SP,-22.0174,-47.886
sao carlos,SP,-27.0798,-53.0037
itajuba,MG,-22.4225,-45.4598
cruz das almas,BA,-12.6675,-39.1008
vassouras,RJ,-22.4059,-43.6686
feira de santana,BA,-12.2664,-38.9663
niteroi,RJ,-22.8832,-43.1034
sobral,CE,-3.68913,-40.3482
divinopolis,MG,-20.1446,-44.8912
paraiba do sul,RJ,-22.1585,-43.304
paulista,PE,-6.59138,-37.6185
paulista,PE,-7.93401,-34.8684
carapicuiba,SP,-23.5235,-46.8407
bom principio,RS,-29.4856,-51.3548
astolfo dutra,MG,-21.3184,-42.8572
marialva,PR,-23.4843,-51.7928
sao jose do rio preto,SP,-20.8113,-49.3758
cabo frio,RJ,-22.8894,-42.0286
contagem,MG,-19.9321,-44.0539
cafeara,PR,-22.789,-51.7142
sao joaquim da barra,SP,-20.5812,-47.8593
foz do iguacu,PR,-25.5427,-54.5827
suzano,SP,-23.5448,-46.3112
timbo,SC,-26.8246,-49.269
camboriu,SC,-27.0241,-48.6503
nova bassano,RS,-28.7291,-51.7072
rio grande,RS,-32.0349,-52.1071
braganca paulista,SP,-22.9527,-46.5419
barra do garcas,MT,-15.8804,-52.264
embu,SP,,
urussanga,SC,-28.518,-49.3238
silvianopolis,MG,-22.0274,-45.8385
gameleiras,MG,-15.0829,-43.125
belem,PA,-1.4554,-48.4898
belem,PA,-6.74261,-35.5166
belem,PA,-9.57047,-36.4904
pocos de caldas,MG,-21.78,-46.5692
santos,SP,-23.9535,-46.335
piracaia,SP,-23.0525,-46.3594
sinop,MT,-11.8604,-55.5091
guaruja,SP,-23.9888,-46.258
barueri,SP,-23.5057,-46.879
feliz,RS,-29.4527,-51.3032
jambeiro,SP,-23.2522,-45.6942
ipatinga,MG,-19.4703,-42.5476
tupa,SP,-21.9335,-50.5191
blumenau,SC,-26.9155,-49.0709
moncoes,SP,-20.8509,-50.0975
balneario camboriu,SC,-26.9926,-48.6352
vargem grande,MA,-3.53639,-43.917
rio brilhante,MS,-21.8033,-54.5427
eugenopolis,MG,-21.1002,-42.1878
paulinia,SP,-22.7542,-47.1488
apucarana,PR,-23.55,-51.4635
recife,PE,-8.04666,-34.8771
osasco,SP,-23.5324,-46.7916
valinhos,SP,-22.9698,-46.9974
manaus,AM,-3.11866,-60.0212
cidreira,RS,-30.1604,-50.2337
santiago,RS,-29.1897,-54.8666
sao sepe,RS,-30.1643,-53.5603
alta floresta,MT,-9.86674,-56.0867
jaboatao dos guararapes,PE,-8.11298,-35.015
ibatiba,ES,-20.2347,-41.5087
hortolandia,SP,-22.8529,-47.2143
cotia,SP,-23.6022,-46.919
macae,RJ,-22.3768,-41.7848
saudades,SC,-26.9317,-53.0021
macapa,AP,0.034934,-51.0694
salto de pirapora,SP,-23.6474,-47.5743
taboao da serra,SP,-23.6019,-46.7526
bom jesus,GO,-26.7326,-52.3919
bom jesus,GO,-28.6697,-50.4295
bom jesus,GO,-9.07124,-44.359
bom jesus,GO,-5.98648,-35.5792
bom jesus,GO,-6.81601,-38.6453
santa cruz do rio pardo,SP,-22.8988,-49.6354
diadema,SP,-23.6813,-46.6205
santa ines,BA,-13.2793,-39.814
santa ines,BA,-22.6376,-51.9024
santa ines,BA,-7.621,-38.554
santa ines,BA,-3.65112,-45.3774
serrinha,BA,-6.28181,-35.5
serrinha,BA,-11.6584,-39.01
votorantim,SP,-23.5446,-47.4388
itatiaia,RJ,-22.4897,-44.5675
duque de caxias,RJ,-22.7858,-43.3049
varre-sai,RJ,-20.9276,-41.8701
vila velha,ES,-20.3417,-40.2875
mangaratiba,RJ,-22.9594,-44.0409
atibaia,SP,-23.1171,-46.5563
salvador,BA,-12.9718,-38.5011
maceio,AL,-9.66599,-35.735
birigui,SP,-21.291,-50.3432
petropolis,RJ,-22.52,-43.1926
sao pedro,SP,-5.90559,-35.6317
sao pedro,SP,-22.5483,-47.9096
jaguariaiva,PR,-24.2439,-49.7066
franco da rocha,SP,-23.3229,-46.729
pindamonhangaba,SP,-22.9246,-45.4613
irati,PR,-25.4697,-50.6493
irati,PR,-26.6539,-52.8955
ribeira,SP,-24.6517,-49.0044
barbacena,MG,-21.2214,-43.7703
limoeiro,PE,-7.8726,-35.4402
espigao do oeste,RO,,
belford roxo,RJ,-22.764,-43.3992
coronel fabriciano,MG,-19.5179,-42.6276
itanhaem,SP,-24.1736,-46.788
bebedouro,SP,-20.9491,-48.4791
americana,SP,-22.7374,-47.3331
uba,MG,-21.1204,-42.9359
arapongas,PR,-23.4153,-51.4259
vinhedo,SP,-23.0302,-46.9833
itajai,SC,-26.9101,-48.6705
bauru,SP,-22.3246,-49.0871
pradopolis,SP,-21.3626,-48.0679
aripuana,MT,-10.1723,-59.4568
guaratinga,BA,-16.5833,-39.7847
ponta pora,MS,-22.5296,-55.7203
aracatuba,SP,-21.2076,-50.4401
volta redonda,RJ,-22.5202,-44.0996
maringa,PR,-23.4205,-51.9333
araraquara,SP,-21.7845,-48.178
matipo,MG,-20.2873,-42.3401
santo antonio da patrulha,RS,-29.8268,-50.5175
barra mansa,RJ,-22.5481,-44.1752
diamantina,MG,-18.2413,-43.6031
mairinque,SP,-23.5398,-47.185
capitao leonidas marques,PR,-25.4816,-53.6112
sao sebastiao do paraiso,MG,-20.9167,-46.9837
rosario do sul,RS,-30.2515,-54.9221
itaguai,RJ,-22.8636,-43.7798
paraopeba,MG,-19.2732,-44.4044
guarapuava,PR,-25.3902,-51.4623
crisolita,MG,-17.2381,-40.9184
pirai,RJ,-22.6215,-43.9081
linhares,ES,-19.3946,-40.0643
agudos,SP,-22.4694,-48.9863
sao joao de meriti,RJ,-22.8058,-43.3729
navegantes,SC,-26.8943,-48.6546
pirassununga,SP,-21.996,-47.4257
faxinal dos guedes,SC,-26.8451,-52.2596
criciuma,SC,-28.6723,-49.3729
nova venecia,ES,-18.715,-40.4053
passo fundo,RS,-28.2576,-52.4091
ibia,MG,-19.4749,-46.5474
manhuacu,MG,-20.2572,-42.028
altamira,PA,-3.20407,-52.21
aperibe,RJ,-21.6252,-42.1017
cuiaba,MT,-15.601,-56.0974
canoas,RS,-29.9128,-51.1857
cubatao,SP,-23.8911,-46.424
campo limpo paulista,SP,-23.2078,-46.7889
cambe,PR,-23.2766,-51.2798
itaquaquecetuba,SP,-23.4835,-46.3457
sao caetano do sul,SP,-23.6229,-46.5548
sao goncalo do rio abaixo,MG,-19.8221,-43.366
rolandia,PR,-23.3101,-51.3659
tres coracoes,MG,-21.6921,-45.2511
cacapava do sul,RS,-30.5144,-53.4827
sao joao nepomuceno,MG,-21.5381,-43.0069
leme,SP,-22.1809,-47.3841
araras,SP,-22.3572,-47.3842
cortes,PE,-8.47443,-35.5468
brusque,SC,-27.0977,-48.9107
montenegro,RS,-29.6824,-51.4679
itaberai,GO,-16.0206,-49.806
santa rosa de viterbo,SP,-21.4776,-47.3622
agua fria de goias,GO,-14.9778,-47.7823
marau,RS,-28.4498,-52.1986
marau,RS,-14.1035,-39.0137
curvelo,MG,-18.7527,-44.4303
juiz de fora,MG,-21.7595,-43.3398
mogi-guacu,SP,,
guaratingueta,SP,-22.8075,-45.1938
paranagua,PR,-25.5161,-48.5225
lins,SP,-21.6718,-49.7526
campo bom,RS,-29.6747,-51.0606
sertaozinho,SP,-21.1316,-47.9875
sertaozinho,SP,-6.75127,-35.4372
tres lagoas,MS,-20.7849,-51.7007
jau,SP,-22.2936,-48.5592
campos de julio,MT,-13.7242,-59.2858
saquarema,RJ,-22.9292,-42.5099
artur nogueira,SP,-22.5727,-47.1727
uaua,BA,-9.83325,-39.4794
jandira,SP,-23.5275,-46.9023
concordia,SC,-27.2335,-52.026
nova friburgo,RJ,-22.2932,-42.5377
sorocaba,SP,-23.4969,-47.4451
ponte nova,MG,-20.4111,-42.8978
araquari,SC,-26.3754,-48.7188
muriae,MG,-21.13,-42.3693
nova lima,MG,-19.9758,-43.8509
inhumas,GO,-16.3611,-49.5001
italva,RJ,-21.4296,-41.7014
tres rios,RJ,-22.1165,-43.2185
santa maria,RS,-29.6868,-53.8149
santa maria,RS,-5.83802,-35.6914
itagiba,BA,-14.2782,-39.8449
paracatu,MG,-17.2252,-46.8711
xaxim,SC,-26.9596,-52.5374
laranjeiras do sul,PR,-25.4077,-52.4109
itapiuna,CE,-4.55516,-38.9281
formosa,GO,-15.54,-47.337
ivoti,RS,-29.5995,-51.1533
juazeiro,BA,-9.41622,-40.5033
ponta grossa,PR,-25.0916,-50.1668
campina grande,PB,-7.22196,-35.8731
maua,SP,-23.6677,-46.4613
salgueiro,PE,-8.07373,-39.1247
lorena,SP,-22.7334,-45.1197
toledo,PR,-22.7421,-46.3728
toledo,PR,-24.7246,-53.7412
sao pedro da aldeia,RJ,-22.8429,-42.1026
vianopolis,GO,-16.7405,-48.5159
arapiraca,AL,-9.75487,-36.6615
porto seguro,BA,-16.4435,-39.0643
ariquemes,RO,-9.90571,-63.0325
presidente getulio,SC,-27.0474,-49.6246
rio negro,PR,-19.447,-54.9859
rio negro,PR,-26.095,-49.7982
ribeirao pires,SP,-23.7067,-46.4058
sao jose da coroa grande,PE,-8.88937,-35.1515
agua doce do norte,ES,-18.5482,-40.9854
anapolis,GO,-16.3281,-48.953
guararapes,SP,-21.2544,-50.6453
farroupilha,RS,-29.2227,-51.3419
almenara,MG,-16.1785,-40.6942
rio das ostras,RJ,-22.5174,-41.9475
gravatai,RS,-29.9413,-50.9869
brumado,BA,-14.2021,-41.6696
marilia,SP,-22.2171,-49.9501
itabira,MG,-19.6239,-43.2312
claudia,MT,-11.5075,-54.8835
para de minas,MG,-19.8534,-44.6114
miguelopolis,SP,-20.1796,-48.031
terra roxa,SP,-24.1575,-54.0988
terra roxa,SP,-20.787,-48.3314
araguari,MG,-18.6456,-48.1934
lages,SC,-27.815,-50.3259
embu das artes,SP,-23.6437,-46.8579
limeira,SP,-22.566,-47.397
taubate,SP,-23.0104,-45.5593
santa fe do sul,SP,-20.2083,-50.932
caieiras,SP,-23.3607,-46.7397
carangola,MG,-20.7343,-42.0313
chapada do norte,MG,-17.0881,-42.5392
loanda,PR,-22.9232,-53.1362
passa tres,RJ,,
aracoiaba da serra,SP,-23.5029,-47.6166
itaborai,RJ,-22.7565,-42.8639
vitoria,ES,-20.3155,-40.3128
sao bento do sul,SC,-26.2495,-49.3831
indaiatuba,SP,-23.0816,-47.2101
boituva,SP,-23.2855,-47.6786
teresopolis,RJ,-22.4165,-42.9752
pinhalzinho,SP,-22.7811,-46.5897
pinhalzinho,SP,-26.8495,-52.9913
petrolina,PE,-9.38866,-40.5027
natal,RN,-5.79357,-35.1986
barreiras,BA,-12.1439,-44.9968
januaria,MG,-15.4802,-44.3639
ipiabas,RJ,,
firminopolis,GO,-16.5778,-50.304
joinville,SC,-26.3045,-48.8487
mococa,SP,-21.4647,-47.0024
vitoria,PR,-20.3155,-40.3128
valenca,RJ,-13.3669,-39.073
valenca,RJ,-22.2445,-43.7129
sao miguel do oeste,SC,-26.7242,-53.5163
jales,SP,-20.2672,-50.5494
rio formoso,PE,-8.6592,-35.1532
angra dos reis,RJ,-23.0011,-44.3196
alfredo chaves,ES,-20.6396,-40.7543
itapetinga,BA,-15.2475,-40.2482
gurupi,TO,-11.7279,-49.068
nucleo residencial pilar,BA,,
coromandel,MG,-18.4734,-47.1933
charqueada,SP,-22.5096,-47.7755
itau de minas,MG,-20.7375,-46.7525
ibiruba,RS,-28.6302,-53.0961
bertioga,SP,-23.8486,-46.1396
ipiau,BA,-14.1226,-39.7353
matozinhos,MG,-19.5543,-44.0868
teresina,PI,-5.09194,-42.8034
entre rios,BA,-11.9392,-38.0871
entre rios,BA,-26.7225,-52.5585
juina,MT,-11.3728,-58.7483
mairipora,SP,-23.3171,-46.5897
marechal candido rondon,PR,-24.557,-54.0571
avare,SP,-23.1067,-48.9251
icem,SP,-20.3391,-49.1915
sao sebastiao,SP,-23.7951,-45.4143
sao sebastiao,SP,-9.93043,-36.559
serra,ES,-20.121,-40.3074
mirassol,SP,-20.8169,-49.5206
taperuaba,CE,,
alfenas,MG,-21.4256,-45.9477
leopoldina,MG,-21.5296,-42.6421
sao joao da boa vista,SP,-21.9707,-46.7944
parnamirim,RN,-5.91116,-35.271
parnamirim,RN,-8.08729,-39.5795
teixeira de freitas,BA,-17.5399,-39.74
joao pessoa,PB,-7.11509,-34.8641
chacara,MG,-21.6733,-43.215
rio novo do sul,ES,-20.8556,-40.9388
guapore,RS,-28.8399,-51.8895
rio branco,AC,-15.2483,-58.1259
rio branco,AC,-9.97499,-67.8243
ferraz de vasconcelos,SP,-23.5411,-46.371
petrolandia,SC,-9.06863,-38.3027
petrolandia,SC,-27.5346,-49.6937
araruna,PR,-23.9315,-52.5021
araruna,PR,-6.54848,-35.7498
gravata,PE,-8.21118,-35.5675
alegre,ES,-20.758,-41.5382
londrina,PR,-23.304,-51.1691
senhor do bonfim,BA,-10.4594,-40.1865
santana de parnaiba,SP,-23.4439,-46.9178
piratininga,SP,-22.4142,-49.1339
monte carmelo,MG,-18.7302,-47.4912
ipiranga,PR,-25.0238,-50.5794
jacarei,SP,-23.2983,-45.9658
picos,PI,-7.07721,-41.467
una,BA,-15.2791,-39.0765
taguai,SP,-23.4452,-49.4024
peabiru,PR,-23.914,-52.3431
conquista,MG,-19.9312,-47.5492
bicas,MG,-21.7232,-43.056
forquilha,CE,-3.79945,-40.2634
guaicara,SP,-21.6195,-49.8013
santa vitoria,MG,-18.8414,-50.1208
adamantina,SP,-21.682,-51.0737
rio claro,SP,-22.72,-44.1419
rio claro,SP,-22.3984,-47.5546
sao jose de uba,RJ,-21.3661,-41.9511
sorriso,MT,-12.5425,-55.7211
aracaju,SE,-10.9091,-37.0677
conselheiro lafaiete,MG,-20.6634,-43.7846
taguatinga,TO,-12.4026,-46.437
tiangua,CE,-3.72965,-40.9923
paranaiba,MS,-19.6746,-51.1909
david canabarro,RS,-28.3849,-51.8482
itarare,SP,-24.1085,-49.3352
cajueiro,AL,-9.3994,-36.1559
cruzeiro,SP,-22.5728,-44.969
santa cruz do sul,RS,-29.722,-52.4343
presidente epitacio,SP,-21.7651,-52.1111
castanhal,PA,-1.29797,-47.9167
cariacica,ES,-20.2632,-40.4165
bom jesus dos perdoes,SP,-23.1356,-46.4675
urucurituba,AM,-3.12841,-58.1496
olinda,PE,-8.01017,-34.8545
sao jose do rio pardo,SP,-21.5953,-46.8873
guapimirim,RJ,-22.5347,-42.9895
vargem grande paulista,SP,-23.5993,-47.022
chapeco,SC,-27.1004,-52.6152
videira,SC,-27.0086,-51.1543
canapi,AL,-9.11932,-37.5967
pontal do parana,PR,-25.6735,-48.5111
bento goncalves,RS,-29.1662,-51.5165
caceres,MT,-16.0764,-57.6818
bituruna,PR,-26.1607,-51.5518
sao bento do sapucai,SP,-22.6837,-45.7287
mage,RJ,-22.6632,-43.0315
forquilhinha,SC,-28.7454,-49.4785
itaberaba,BA,-12.5242,-40.3059
gramado,RS,-29.3734,-50.8762
guacui,ES,-20.7668,-41.6734
pato branco,PR,-26.2292,-52.6706
itanhem,BA,-17.1642,-40.3321
palmas,TO,-26.4839,-51.9888
palmas,TO,-10.24,-48.3558
bage,RS,-31.3297,-54.0999
francisco morato,SP,-23.2792,-46.7448
cosmopolis,SP,-22.6419,-47.1926
carmo,RJ,-21.931,-42.6046
armacao dos buzios,RJ,-22.7528,-41.8846
santa maria da vitoria,BA,-13.3859,-44.2011
pedro leopoldo,MG,-19.6308,-44.0383
tres marias,MG,-18.2048,-45.2473
cascavel,CE,-24.9573,-53.459
cascavel,CE,-4.12967,-38.2412
santo antonio de padua,RJ,-21.541,-42.1832
porto feliz,SP,-23.2093,-47.5251
gaspar,SC,-26.9336,-48.9534
palhoca,SC,-27.6455,-48.6697
pouso alegre,MG,-22.2266,-45.9389
guaiuba,CE,-4.04057,-38.6404
fraiburgo,SC,-27.0233,-50.92
aurea,RS,-27.6936,-52.0505
botucatu,SP,-22.8837,-48.4437
corumba,MS,-19.0077,-57.651
cajamar,SP,-23.355,-46.8781
queimados,RJ,-22.7102,-43.5518
sao jorge do ivai,PR,-23.4336,-52.2929
nova laranjeiras,PR,-25.3054,-52.5447
guaxupe,MG,-21.305,-46.7081
osvaldo cruz,SP,-21.7968,-50.8793
ivora,RS,-29.5232,-53.5842
anaurilandia,MS,-22.1852,-52.7191
caraguatatuba,SP,-23.6125,-45.4125
regeneracao,PI,-6.23115,-42.6842
bilac,SP,-21.404,-50.4746
faxinal,PR,-24.0077,-51.3227
pedro velho,RN,-6.4356,-35.2195
uberaba,MG,-19.7472,-47.9381
viamao,RS,-30.0819,-51.0194
cachoeira de minas,MG,-22.3511,-45.7809
coelho neto,MA,-4.25245,-43.0108
itajobi,SP,-21.3123,-49.0629
carmo do rio claro,MG,-20.9736,-46.1149
marica,RJ,-22.9354,-42.8246
campo novo do parecis,MT,-13.6587,-57.8907
boa vista,RR,2.82384,-60.6753
boa vista,RR,-7.26365,-36.2357
valenca,BA,-13.3669,-39.073
valenca,BA,-22.2445,-43.7129
ipameri,GO,-17.7215,-48.1581
carlos barbosa,RS,-29.2969,-51.5028
anicuns,GO,-16.4642,-49.9617
rio bananal,ES,-19.2719,-40.3366
lavras da mangabeira,CE,-6.7448,-38.9706
balsamo,SP,-20.7348,-49.5865
guariba,SP,-21.3594,-48.2316
sao vendelino,RS,-29.3729,-51.3675
campo mourao,PR,-24.0463,-52.378
aracati,CE,-4.55826,-37.7679
santo antonio do descoberto,GO,-15.9412,-48.2578
santo amaro da imperatriz,SC,-27.6852,-48.7813
betim,MG,-19.9668,-44.2008
vicosa,MG,-5.98253,-37.9462
vicosa,MG,-9.36763,-36.2431
vicosa,MG,-20.7559,-42.8742
dom eliseu,PA,-4.19944,-47.8245
campo largo,PR,-25.4525,-49.529
santa rosa de lima,SC,-28.0331,-49.133
santa rosa de lima,SC,-10.6434,-37.1931
quissama,RJ,-22.1031,-41.4693
mirandopolis,SP,-21.1313,-51.1035
itapevi,SP,-23.5488,-46.9327
francisco beltrao,PR,-26.0817,-53.0535
dias d'avila,BA,-12.6187,-38.2926
novo horizonte,SP,-26.4442,-52.8281
novo horizonte,SP,-21.4651,-49.2234
novo horizonte,SP,-12.8083,-42.1682
poa,SP,-23.5333,-46.3473
querencia,MT,-12.6093,-52.1821
campo grande,MS,-9.95542,-36.7926
campo grande,MS,-20.4486,-54.6295
pedreira,SP,-22.7413,-46.8948
pariquera-acu,SP,-24.7147,-47.8742
itabaianinha,SE,-11.2693,-37.7875
pitangui,MG,-19.6741,-44.8964
araruama,RJ,-22.8697,-42.3326
campo formoso,BA,-10.5105,-40.32
guanambi,BA,-14.2231,-42.7799
itapolis,SP,-21.5942,-48.8149
pederneiras,SP,-22.3511,-48.7781
itabirito,MG,-20.2501,-43.8038
itaipava,ES,,
arroio do sal,RS,-29.5439,-49.8895
glaura,MG,,
lagoa vermelha,RS,-28.2093,-51.5248
mantena,MG,-18.7761,-40.9874
peruibe,SP,-24.312,-47.0012
tubarao,SC,-28.4713,-49.0144
bonfim,MG,3.36161,-59.8333
bonfim,MG,-20.3302,-44.2366
alvorada,RS,-12.4785,-49.1249
alvorada,RS,-29.9914,-51.0809
patrocinio,MG,-18.9379,-46.9934
mineiros,GO,-17.5654,-52.5537
itabuna,BA,-14.7876,-39.2781
tijucas,SC,-27.2354,-48.6322
santo antonio de jesus,BA,-12.9614,-39.2584
canarana,MT,-11.6858,-41.7677
canarana,MT,-13.5515,-52.2705
itapecerica da serra,SP,-23.7161,-46.8572
nova prata do iguacu,PR,-25.6309,-53.3469
treze tilias,SC,-27.0026,-51.4084
anchieta,ES,-26.5382,-53.3319
anchieta,ES,-20.7955,-40.6425
quatigua,PR,-23.5671,-49.916
iturama,MG,-19.7276,-50.1966
palmas,PR,-26.4839,-51.9888
palmas,PR,-10.24,-48.3558
tres de maio,RS,-27.78,-54.2357
santa rita do passa quatro,SP,-21.7083,-47.478
porto esperidiao,MT,-15.857,-58.4619
bonfim paulista,SP,,
cajuru,SP,-21.2749,-47.303
cacador,SC,-26.7757,-51.012
paragominas,PA,-3.00212,-47.3527
boa esperanca do sul,SP,-21.9918,-48.3906
tres pontas,MG,-21.3694,-45.5109
juazeiro do norte,CE,-7.19621,-39.3076
bambui,MG,-20.0166,-45.9754
comendador levy gasparian,RJ,-22.0404,-43.214
sao miguel do aleixo,SE,-10.3847,-37.3836
palmeira dos indios,AL,-9.40568,-36.6328
cerquilho,SP,-23.1665,-47.7459
saudade do iguacu,PR,-25.6917,-52.6184
ipaussu,SP,-23.0575,-49.6279
alto paraiso de goias,GO,-14.1305,-47.51
santa isabel,SP,-23.3172,-46.2237
santa isabel,SP,-15.2958,-49.4259
quirinopolis,GO,-18.4472,-50.4547
caruaru,PE,-8.28455,-35.9699
casimiro de abreu,RJ,-22.4812,-42.2066
chavantes,SP,-23.0366,-49.7096
ecoporanga,ES,-18.3702,-40.836
cachoeira paulista,SP,-22.6665,-45.0154
rio verde,GO,-17.7923,-50.9192
maracanau,CE,-3.86699,-38.6259
canoinhas,SC,-26.1766,-50.395
ituverava,SP,-20.3355,-47.7902
buriti dos lopes,PI,-3.18259,-41.8695
rio do antonio,BA,-14.4071,-42.0721
guaranta,SP,-21.8942,-49.5914
santa luzia,MG,-4.06873,-45.69
santa luzia,MG,-15.4342,-39.3287
santa luzia,MG,-19.7548,-43.8497
santa luzia,MG,-6.86092,-36.9178
tucurui,PA,-3.7657,-49.6773
paranavai,PR,-23.0816,-52.4617
pinhais,PR,-25.4429,-49.1927
governador valadares,MG,-18.8545,-41.9555
trajano de moraes,RJ,-22.0638,-42.0643
caete,MG,-19.8826,-43.6704
abaetetuba,PA,-1.72183,-48.8788
lavras,MG,-21.248,-45.0009
coronel joao sa,BA,-10.2847,-37.9198
divino,MG,-20.6134,-42.1438
macaubas,BA,-13.0186,-42.6945
lucelia,SP,-21.7182,-51.0215
brejo da madre de deus,PE,-8.14933,-36.3741
carai,MG,-17.1862,-41.7004
corbelia,PR,-24.7971,-53.3006
varginha,MG,-21.5556,-45.4364
ouro preto,MG,-20.3796,-43.512
prado,BA,-17.3364,-39.2227
colniza,MT,-9.46121,-59.2252
piuma,ES,-20.8334,-40.7268
rancharia,SP,-22.2269,-50.893
barretos,SP,-20.5531,-48.5698
eunapolis,BA,-16.3715,-39.5821
floresta,PE,-23.6031,-52.0807
floresta,PE,-8.60307,-38.5687
sao jose do norte,RS,-32.0151,-52.0331
rio bonito,RJ,-22.7181,-42.6276
vargem bonita,SC,-20.3333,-46.3688
vargem bonita,SC,-27.0055,-51.7402
monte mor,SP,-22.945,-47.3122
valente,BA,-11.4062,-39.457
balsas,MA,-7.53214,-46.0372
nhandeara,SP,-20.6945,-50.0436
lauro de freitas,BA,-12.8978,-38.321
osorio,RS,-29.8881,-50.2667
machado,MG,-21.6778,-45.9219
sao leopoldo,RS,-29.7545,-51.1498
soledade,PB,-7.05829,-36.3668
soledade,PB,-28.8306,-52.5131
assis,SP,-22.66,-50.4183
guarapari,ES,-20.6772,-40.5093
santo antonio do caiua,PR,-22.7351,-52.344
esteio,RS,-29.852,-51.1841
cambuci,RJ,-21.5691,-41.9187
campina grande do sul,PR,-25.3044,-49.0551
baixo guandu,ES,-19.5213,-41.0109
fernao,SP,-22.3607,-49.5187
ibitinga,SP,-21.7562,-48.8319
santa cruz das palmeiras,SP,-21.8235,-47.248
vila muriqui,RJ,,
sao mateus,ES,-18.7214,-39.8579
piracuruca,PI,-3.93335,-41.7088
cordeiro,RJ,-22.0267,-42.3648
cachoeira do sul,RS,-30.033,-52.8928
barra do pirai,RJ,-22.4715,-43.8269
castro,PR,-24.7891,-50.0108
ico,CE,-6.39627,-38.8554
sete lagoas,MG,-19.4569,-44.2413
itumbiara,GO,-18.4093,-49.2158
aluminio,SP,-23.5306,-47.2546
jatai,GO,-17.8784,-51.7204
frederico westphalen,RS,-27.3586,-53.3958
goioere,PR,-24.1835,-53.0248
sao jose da tapera,AL,-9.55768,-37.3831
porto uniao,SC,-26.2451,-51.0759
cocalinho,MT,-14.3903,-51.0001
curitibanos,SC,-27.2824,-50.5816
campos novos,SC,-27.4002,-51.2276
ubatuba,SP,-23.4332,-45.0834
monte santo de minas,MG,-21.1873,-46.9753
ribeirao das neves,MG,-19.7621,-44.0844
sao simao,SP,-21.4732,-47.5518
sao simao,SP,-18.996,-50.547
urutai,GO,-17.4651,-48.2015
itaobim,MG,-16.5571,-41.5017
liberdade,MG,-22.0275,-44.3208
arcos,MG,-20.2863,-45.5373
ribeirao,PE,-8.50957,-35.3698
santa ines,MA,-13.2793,-39.814
santa ines,MA,-22.6376,-51.9024
santa ines,MA,-7.621,-38.554
santa ines,MA,-3.65112,-45.3774
patos de minas,MG,-18.5699,-46.5013
penapolis,SP,-21.4148,-50.0769
eusebio,CE,-3.8925,-38.4559
cordeiros,BA,-15.0356,-41.9308
victor graeff,RS,-28.5632,-52.7495
santa rita do araguaia,GO,-17.3269,-53.2012
poxoreu,MT,-15.8299,-54.4208
ananas,TO,-6.36437,-48.0735
conceicao dos ouros,MG,-22.4078,-45.7996
alagoinhas,BA,-12.1335,-38.4208
sao joao da barra,RJ,-21.638,-41.0446
lindoia,SP,-22.5226,-46.65
bonfinopolis,GO,-16.6173,-48.9616
ibiam,SC,-27.1847,-51.2352
morungaba,SP,-22.8811,-46.7896
andradina,SP,-20.8948,-51.3786
tatui,SP,-23.3487,-47.8461
mata verde,MG,-15.6869,-40.7366
cornelio procopio,PR,-23.1829,-50.6498
itapipoca,CE,-3.49933,-39.5836
queluz,SP,-22.5312,-44.7781
godoy moreira,PR,-24.173,-51.9246
iracemapolis,SP,-22.5832,-47.523
buritizeiro,MG,-17.3656,-44.9606
xique-xique,BA,-10.823,-42.7245
uruacu,GO,-14.5238,-49.1396
japi,RN,-6.46544,-35.9346
itauna,MG,-20.0818,-44.5801
sao francisco de assis,RS,-29.5547,-55.1253
pitangueiras,SP,-21.0132,-48.221
pitangueiras,SP,-23.2281,-51.5873
ze doca,MA,-3.27014,-45.6553
dracena,SP,-21.4843,-51.535
cachoeiras de macacu,RJ,-22.4658,-42.6523
barauna,RN,-5.06977,-37.6129
barauna,RN,-6.63484,-36.2601
formiga,MG,-20.4618,-45.4268
rodeio,SC,-26.9243,-49.3649
jequie,BA,-13.8509,-40.0877
juvenilia,MG,-14.2662,-44.1597
poco fundo,MG,-21.78,-45.9658
amparo,SP,-7.55502,-37.0628
amparo,SP,-22.7088,-46.772
lauro muller,SC,-28.3859,-49.4035
japeri,RJ,-22.6435,-43.6602
ourinhos,SP,-22.9797,-49.8697
lagoa dos gatos,PE,-8.6602,-35.904
embu-guacu,SP,-23.8297,-46.8136
nossa senhora do remedio,SP,,
tambau,SP,-21.7029,-47.2703
orlandia,SP,-20.7169,-47.8852
bananeiras,PB,-6.74775,-35.6246
sao joao do manhuacu,MG,-20.3933,-42.1533
sarandi,RS,-23.4441,-51.876
sarandi,RS,-27.942,-52.9231
congonhas,MG,-20.4958,-43.851
boa esperanca,MG,-24.2467,-52.7876
boa esperanca,MG,-21.0927,-45.5612
boa esperanca,MG,-18.5395,-40.3025
sandolandia,TO,-12.538,-49.9242
garca,SP,-22.2125,-49.6546
descalvado,SP,-21.9002,-47.6181
guaracai,SP,-21.0292,-51.2119
aruana,GO,-14.9166,-51.075
inga,PB,-7.28144,-35.605
taio,SC,-27.121,-49.9942
gaurama,RS,-27.5856,-52.0915
praia grande,SP,-24.0084,-46.4121
praia grande,SP,-29.1918,-49.9525
janauba,MG,-15.8022,-43.3132
nova monte verde,MT,-9.99998,-57.5261
mongagua,SP,-24.0809,-46.6265
monte alto,SP,-21.2655,-48.4971
sao joao do piaui,PI,-8.35466,-42.2559
primavera do leste,MT,-15.544,-54.2811
seropedica,RJ,-22.7526,-43.7155
indaial,SC,-26.8992,-49.2354
teofilo otoni,MG,-17.8595,-41.5087
santa terezinha,SC,-26.7813,-50.009
santa terezinha,SC,-10.4704,-50.514
santa terezinha,SC,-7.37696,-37.4787
planaltina,GO,-15.452,-47.6089
caravelas,BA,-17.7268,-39.2597
muritiba,BA,-12.6329,-38.9921
itatiba,SP,-23.0035,-46.8464
piumhii,MG,,
pitanga,PR,-24.7588,-51.7596
capelinha,MG,-17.6888,-42.5147
ipero,SP,-23.3513,-47.6927
tarabai,SP,-22.3016,-51.5621
aparecida do taboado,MS,-20.0873,-51.0961
maioba,MA,,
monnerat,RJ,,
sao lourenco do sul,RS,-31.3564,-51.9715
biguacu,SC,-27.496,-48.6598
venda nova do imigrante,ES,-20.327,-41.1355
arapoti,PR,-24.1548,-49.8285
fazenda rio grande,PR,-25.6624,-49.3073
senges,PR,-24.1129,-49.4616
aracruz,ES,-19.82,-40.2764
canela,RS,-29.356,-50.8119
porto franco,MA,-6.34149,-47.3962
veranopolis,RS,-28.9312,-51.5516
candiota,RS,-31.5516,-53.6773
carmo do paranaiba,MG,-18.991,-46.3167
itacare,BA,-14.2784,-38.9959
desembargador otoni,MG,,
joanopolis,SP,-22.927,-46.2741
registro,SP,-24.4979,-47.8449
ipiranga do norte,MT,-12.2408,-56.1531
felipe guerra,RN,-5.59274,-37.6875
dumont,SP,-21.2324,-47.9756
itapetininga,SP,-23.5886,-48.0483
bom despacho,MG,-19.7386,-45.2622
lagoa santa,MG,-19.1832,-51.3998
lagoa santa,MG,-19.6397,-43.8932
estacao,RS,-27.9135,-52.2635
panorama,SP,-21.354,-51.8562
palmares,PE,-8.68423,-35.589
prata,MG,-19.3086,-48.9276
prata,MG,-7.68826,-37.0801
santa adelia,SP,-21.2427,-48.8063
iguaba grande,RJ,-22.8495,-42.2299
sarzedo,MG,-20.0367,-44.1446
dourado,SP,-22.1044,-48.3178
alcinopolis,MS,-18.3255,-53.7042
limoeiro do norte,CE,-5.14392,-38.0847
ibiraci,MG,-20.4611,-47.1222
ilhabela,SP,-23.7785,-45.3552
icara,SC,-28.7132,-49.3087
paiva,MG,-21.2913,-43.4088
batatais,SP,-20.8929,-47.5921
formoso do araguaia,TO,-11.7976,-49.5316
itapaci,GO,-14.9522,-49.5511
fernandopolis,SP,-20.2806,-50.2471
miguel pereira,RJ,-22.4572,-43.4803
tocos,RJ,,
campos do jordao,SP,-22.7296,-45.5833
catalao,GO,-18.1656,-47.944
sao jose da lapa,MG,-19.6971,-43.9586
marituba,PA,-1.36002,-48.3421
arapora,MG,-18.4357,-49.1847
turvo,PR,-25.0437,-51.5282
turvo,PR,-28.9272,-49.6831
rubiataba,GO,-15.1617,-49.8048
guaruja do sul,SC,-26.3858,-53.5296
pedra bela,SP,-22.7902,-46.4455
perdizes,MG,-19.3434,-47.2963
jesuania,MG,-21.9887,-45.2911
antonio carlos,MG,-27.5191,-48.766
antonio carlos,MG,-21.321,-43.7451
itapecerica,MG,-20.4704,-45.127
monte belo,MG,-21.3271,-46.3635
mossoro,RN,-5.18374,-37.3474
piraju,SP,-23.1981,-49.3803
encruzilhada do sul,RS,-30.543,-52.5204
igaratinga,MG,-19.9476,-44.7063
sao luis de montes belos,GO,-16.5211,-50.3726
santa rosa,RS,-27.8702,-54.4796
lagoinha,SP,-23.0846,-45.1944
trindade,PE,-16.6517,-49.4927
trindade,PE,-7.759,-40.2647
redentora,RS,-27.664,-53.6407
cuite,PB,-6.47647,-36.1515
coxim,MS,-18.5013,-54.751
lucas do rio verde,MT,-13.0588,-55.9042
ibirataia,BA,-14.0643,-39.6459
olimpia,SP,-20.7366,-48.9106
cedro,CE,-6.60034,-39.0609
cedro,CE,-7.71179,-39.2367
mario campos,MG,-20.0582,-44.1883
umuarama,PR,-23.7656,-53.3201
nova xavantina,MT,-14.6771,-52.3502
sao borja,RS,-28.6578,-56.0036
aguai,SP,-22.0572,-46.9735
itapira,SP,-22.4357,-46.8224
uniao da vitoria,PR,-26.2273,-51.0873
nova odessa,SP,-22.7832,-47.2941
itapuranga,GO,-15.5606,-49.949
nova cruz,RN,-6.47511,-35.4286
apuiares,CE,-3.94506,-39.4359
almirante tamandare,PR,-25.3188,-49.3037
correia pinto,SC,-27.5877,-50.3614
itamarandiba,MG,-17.8552,-42.8561
juscimeira,MT,-16.0633,-54.8859
ipora,GO,-24.0083,-53.706
ipora,GO,-16.4398,-51.118
cedro de sao joao,SE,-10.2534,-36.8856
santa barbara d'oeste,SP,-22.7553,-47.4143
sao joao da urtiga,RS,-27.8195,-51.8257
valparaiso de goias,GO,-16.0651,-47.9757
jussara,GO,-11.0431,-41.9702
jussara,GO,-15.8659,-50.8668
jussara,GO,-23.6219,-52.4693
capao da canoa,RS,-29.7642,-50.0282
araxa,MG,-19.5902,-46.9438
campo belo,MG,-20.8932,-45.2699
monte aprazivel,SP,-20.768,-49.7184
bom jesus do querendo,RJ,,
socorro,SP,-22.5903,-46.5251
catanduva,SP,-21.1314,-48.977
monte castelo,SC,-26.461,-50.2327
monte castelo,SC,-21.2981,-51.5679
tabatinga,SP,-21.7239,-48.6896
tabatinga,SP,-4.2416,-69.9383
bayeux,PB,-7.1238,-34.9293
ijui,RS,-28.388,-53.92
tangara da serra,MT,-14.6229,-57.4933
campos borges,RS,-28.8871,-53.0008
palma,MG,-21.3748,-42.3123
minacu,GO,-13.5304,-48.2206
miracema,RJ,-21.4148,-42.1938
taruma,SP,-22.7429,-50.5786
sao francisco do sul,SC,-26.2579,-48.6344
cedral,SP,-2.00027,-44.5281
cedral,SP,-20.9009,-49.2664
camaragibe,PE,-8.02351,-34.9782
lajeado,RS,-9.74996,-48.3565
lajeado,RS,-29.4591,-51.9644
cerqueira cesar,SP,-23.038,-49.1655
frutal,MG,-20.0259,-48.9355
igarata,SP,-23.2037,-46.157
novo gama,GO,-16.0592,-48.0417
sapucaia do sul,RS,-29.8276,-51.145
juquitiba,SP,-23.9244,-47.0653
terra boa,PR,-23.7683,-52.447
joao monlevade,MG,-19.8126,-43.1735
porangatu,GO,-13.4391,-49.1503
formosa da serra negra,MA,-6.44017,-46.1916
rafard,SP,-23.0105,-47.5318
rainha do mar,RS,,
pontal,SP,-21.0216,-48.0423
rio do sul,SC,-27.2156,-49.643
nilopolis,RJ,-22.8057,-43.4233
maracaju,MS,-21.6105,-55.1678
santo augusto,RS,-27.8526,-53.7776
banabuiu,CE,-5.30454,-38.9132
buenopolis,MG,-17.8744,-44.1775
barbalha,CE,-7.2982,-39.3021
quintana,SP,-22.0692,-50.307
chorrocho,BA,-8.9695,-39.0979
votuporanga,SP,-20.4237,-49.9781
poco verde,SE,-10.7151,-38.1813
cipo-guacu,SP,,
santarem,PA,-2.43849,-54.6996
santa clara do sul,RS,-29.4747,-52.0843
ibiuna,SP,-23.6596,-47.223
capivari,SP,-22.9951,-47.5071
arraias,TO,-12.9287,-46.9359
patos,PB,-7.01743,-37.2747
sao francisco do guapore,RO,-12.052,-63.568
vitoria da conquista,BA,-14.8615,-40.8442
urucuca,BA,-14.5963,-39.2851
vacaria,RS,-28.5079,-50.9418
campos altos,MG,-19.6914,-46.1725
nossa senhora do socorro,SE,-10.8468,-37.1231
cruzeiro do sul,RS,-22.9624,-52.1622
cruzeiro do sul,RS,-29.5148,-51.9928
cruzeiro do sul,RS,-7.62762,-72.6756
cataguases,MG,-21.3924,-42.6896
varzea grande,MT,-6.54899,-42.248
varzea grande,MT,-15.6458,-56.1322
santa rita do sapucai,MG,-22.2461,-45.7034
jaboticabal,SP,-21.252,-48.3252
ilha comprida,SP,-24.7307,-47.5383
brasilia de minas,MG,-16.2104,-44.4299
moreno,PE,-8.10871,-35.0835
capanema,PR,-1.20529,-47.1778
capanema,PR,-25.6691,-53.8055
tombos,MG,-20.9086,-42.0228
espumoso,RS,-28.7286,-52.8461
ouro branco,MG,-20.5263,-43.6962
ouro branco,MG,-6.6958,-36.9428
ouro branco,MG,-9.15884,-37.3556
valenca do piaui,PI,-6.40301,-41.7375
igrejinha,RS,-29.5693,-50.7919
engenheiro coelho,SP,-22.4836,-47.211
parauapebas,PA,-6.06781,-49.9037
afonso claudio,ES,-20.0778,-41.1261
sao bernardo,MA,-3.37223,-42.4191
salto do jacui,RS,-29.0951,-53.2133
pires do rio,GO,-17.3019,-48.2768
taguatinga,DF,-12.4026,-46.437
astorga,PR,-23.2318,-51.6668
medina,MG,-16.2245,-41.4728
porto ferreira,SP,-21.8498,-47.487
aracariguama,SP,-23.4366,-47.0608
hidrolandia,CE,-16.9626,-49.2265
hidrolandia,CE,-4.40958,-40.4056
virginopolis,MG,-18.8154,-42.7015
soledade de minas,MG,-22.0554,-45.0464
casca,RS,-28.5605,-51.9815
sapiranga,RS,-29.6349,-51.0064
angatuba,SP,-23.4917,-48.4139
ibirapua,BA,-17.6832,-40.1129
itupeva,SP,-23.1526,-47.0593
espera feliz,MG,-20.6508,-41.9119
penedo,AL,-10.2874,-36.5819
ibirite,MG,-20.0252,-44.0569
miracatu,SP,-24.2766,-47.4625
francisco santos,PI,-6.99491,-41.1288
paracambi,RJ,-22.6078,-43.7108
cardoso,SP,-20.08,-49.9183
floriano,PI,-6.77182,-43.0241
rondonopolis,MT,-16.4673,-54.6372
barra de sao francisco,ES,-18.7548,-40.8965
lavinia,SP,-21.1639,-51.0412
guajara-mirim,RO,-10.7889,-65.3296
guimaraes,MA,-2.12755,-44.602
sao tome,RN,-23.5349,-52.5901
sao tome,RN,-5.96404,-36.0798
medianeira,PR,-25.2977,-54.0943
conceicao das pedras,MG,-22.1576,-45.4562
rinopolis,SP,-21.7284,-50.7239
capim grosso,BA,-11.3797,-40.0089
guaira,SP,-20.3196,-48.312
guaira,SP,-24.085,-54.2573
euclides da cunha paulista,SP,-22.5545,-52.5928
lagoa da prata,MG,-20.0237,-45.5401
nanuque,MG,-17.8481,-40.3533
luis antonio,SP,-21.55,-47.7801
senador firmino,MG,-20.9158,-43.0904
viradouro,SP,-20.8734,-48.293
itabera,SP,-23.8638,-49.14
cambara,PR,-23.0423,-50.0753
sananduva,RS,-27.947,-51.8079
tapera,RS,-28.6277,-52.8613
tupaciguara,MG,-18.5866,-48.6985
colombo,PR,-25.2925,-49.2262
ananindeua,PA,-1.36391,-48.3743
coribe,BA,-13.8232,-44.4586
rio doce,MG,-20.2412,-42.8995
mogi mirim,SP,-22.4332,-46.9532
tocos do moji,MG,-22.3698,-46.0971
beberibe,CE,-4.17741,-38.1271
formosa do rio preto,BA,-11.0328,-45.193
claudio,MG,-20.4437,-44.7673
rio paranaiba,MG,-19.1861,-46.2455
humberto de campos,MA,-2.59828,-43.4649
camocim de sao felix,PE,-8.35865,-35.7653
santo antonio de posse,SP,-22.6029,-46.9192
mesquita,RJ,-22.8028,-43.4601
mesquita,RJ,-19.224,-42.6079
passa quatro,MG,-22.3871,-44.9709
belo oriente,MG,-19.2199,-42.4828
alto araguaia,MT,-17.3153,-53.2181
igarassu,PE,-7.82881,-34.9013
porto velho,RO,-8.76077,-63.8999
cajazeiras,PB,-6.88004,-38.5577
garopaba,SC,-28.0275,-48.6192
rio azul,PR,-25.7306,-50.7985
dois corregos,SP,-22.3673,-48.3819
sooretama,ES,-19.1897,-40.0974
cruzeiro do oeste,PR,-23.7799,-53.0774
nazare paulista,SP,-23.1747,-46.3983
riversul,SP,-23.829,-49.429
iguaracu,PR,-23.1949,-51.8256
maracas,BA,-13.4355,-40.4323
parana,TO,-12.6167,-47.8734
parana,TO,-6.47565,-38.3057
reboucas,PR,-25.6232,-50.6877
ametista do sul,RS,-27.3607,-53.183
itu,SP,-23.2544,-47.2927
cacu,GO,-18.5594,-51.1328
vespasiano,MG,-19.6883,-43.9239
lindolfo collor,RS,-29.5859,-51.2141
sao lourenco,MG,-22.1166,-45.0506
santana do sobrado,BA,,
cafelandia,PR,-21.8031,-49.6092
cafelandia,PR,-24.6189,-53.3207
ibiapina,CE,-3.92403,-40.8911
schroeder,SC,-26.4116,-49.074
sao joao do oriente,MG,-19.3384,-42.1575
matao,SP,-21.6025,-48.364
itanhandu,MG,-22.2942,-44.9382
santo angelo,RS,-28.3001,-54.2668
capinopolis,MG,-18.6862,-49.5706
colatina,ES,-19.5493,-40.6269
nova mutum,MT,-13.8374,-56.0743
munhoz de melo,PR,-23.1487,-51.7737
ibate,SP,-21.9584,-47.9882
unai,MG,-16.3592,-46.9022
medeiros neto,BA,-17.3707,-40.2238
anta,RJ,,
ouroeste,SP,-20.0061,-50.3768
central,BA,-11.1376,-42.1116
nova independencia,SP,-21.1026,-51.4905
itapema,SC,-27.0861,-48.616
sao jose do cedro,SC,-26.4561,-53.4955
camutanga,PE,-7.40545,-35.2664
ipumirim,SC,-27.0772,-52.1289
cristalia,MG,-16.716,-42.8571
andira,PR,-23.0533,-50.2304
panelas,PE,-8.66121,-36.0125
comodoro,MT,-13.6614,-59.7848
domingos martins,ES,-20.3603,-40.6594
tangua,RJ,-22.7423,-42.7202
sao gotardo,MG,-19.3087,-46.0465
araguaina,TO,-7.19238,-48.2044
ilheus,BA,-14.793,-39.046
louveira,SP,-23.0856,-46.9484
imbituba,SC,-28.2284,-48.6659
ouricuri,PE,-7.87918,-40.08
itatinga,SP,-23.1047,-48.6157
santo cristo,RS,-27.8263,-54.662
arraial d'ajuda,BA,,
piracanjuba,GO,-17.302,-49.017
russas,CE,-4.92673,-37.9721
lambari,MG,-21.9671,-45.3498
vargem alta,ES,-20.669,-41.0179
sacra familia do tingua,RJ,,
assis chateaubriand,PR,-24.4168,-53.5213
lago da pedra,MA,-4.56974,-45.1319
unistalda,RS,-29.04,-55.1517
sao joao evangelista,MG,-18.548,-42.7655
paramirim,BA,-13.4388,-42.2395
goias,GO,-15.9333,-50.14
paracuru,CE,-3.41436,-39.03
cruz alta,RS,-28.645,-53.6048
presidente bernardes,SP,-22.0082,-51.5565
presidente bernardes,SP,-20.7656,-43.1895
pains,MG,-20.3705,-45.6627
sao goncalo do rio preto,MG,-18.0025,-43.3854
jacinto machado,SC,-28.9961,-49.7623
sobralia,MG,-19.2345,-42.0998
maraba,PA,-5.38075,-49.1327
paraibuna,SP,-23.3872,-45.6639
toropi,RS,-29.4782,-54.2244
jauru,MT,-15.3342,-58.8723
cristalandia,TO,-10.5985,-49.1942
castelo do piaui,PI,-5.31869,-41.5499
ibipora,PR,-23.2659,-51.0522
presidente dutra,MA,-11.2923,-41.9843
presidente dutra,MA,-5.2898,-44.495
vera cruz,BA,-6.04399,-35.428
vera cruz,BA,-12.9568,-38.6153
vera cruz,BA,-29.7184,-52.5152
vera cruz,BA,-22.2183,-49.8207
paulo frontin,PR,-26.0466,-50.8304
rio grande da serra,SP,-23.7437,-46.3971
ocaucu,SP,-22.438,-49.922
xinguara,PA,-7.0983,-49.9437
guaranesia,MG,-21.3009,-46.7964
extrema,MG,-22.854,-46.3178
braco do rio,ES,,
timon,MA,-5.09769,-42.8329
ipora do oeste,SC,-26.9854,-53.5355
santa cruz da conceicao,SP,-22.1405,-47.4512
ivate,PR,-23.4072,-53.3687
erechim,RS,-27.6364,-52.2697
palmeiras,BA,-12.5059,-41.5809
guarani,MG,-21.3563,-43.0328
tremembe,SP,-22.9571,-45.5475
rio preto,MG,-22.0861,-43.8293
tucunduva,RS,-27.6573,-54.4439
sao tiago,MG,-20.9075,-44.5098
prados,MG,-21.0597,-44.0778
aguas belas,PE,-9.11125,-37.1226
xambre,PR,-23.7364,-53.4884
arvorezinha,RS,-28.8737,-52.1781
sao martinho,RS,-28.1609,-48.9867
sao martinho,RS,-27.7112,-53.9699
antonio prado,RS,-28.8565,-51.2883
paulo lopes,SC,-27.9607,-48.6864
maravilha,SC,-9.23045,-37.3524
maravilha,SC,-26.7665,-53.1737
jeremoabo,BA,-10.0685,-38.3471
navirai,MS,-23.0618,-54.1995
itubera,BA,-13.7249,-39.1481
uruguaiana,RS,-29.7614,-57.0853
ji-parana,RO,-10.8777,-61.9322
tabuleiro,MG,-21.3632,-43.2381
campo ere,SC,-26.3931,-53.0856
california da barra,RJ,,
rio claro,RJ,-22.72,-44.1419
rio claro,RJ,-22.3984,-47.5546
nova londrina,PR,-22.7639,-52.9868
divinopolis de goias,GO,-13.2853,-46.3999
uruana,GO,-15.4993,-49.6861
presidente prudente,SP,-22.1207,-51.3925
sao joao de petropolis,ES,,
luis eduardo magalhaes,BA,-12.0956,-45.7866
matupa,MT,-10.1821,-54.9467
quatro barras,PR,-25.3673,-49.0763
costa rica,MS,-18.5432,-53.1287
novo oriente,CE,-5.52552,-40.7713
capao bonito,SP,-24.0113,-48.3482
taua,CE,-5.98585,-40.2968
igarapava,SP,-20.0407,-47.7466
jacui,MG,-21.0137,-46.7359
aragarcas,GO,-15.8955,-52.2372
independencia,CE,-27.8354,-54.1886
independencia,CE,-5.38789,-40.3085
lagoa de velhos,RN,-6.0119,-35.8729
cantagalo,RJ,-21.9797,-42.3664
cantagalo,RJ,-25.3734,-52.1198
cantagalo,RJ,-18.5248,-42.6223
paulo afonso,BA,-9.3983,-38.2216
caldas novas,GO,-17.7441,-48.6246
dores de guanhaes,MG,-19.0516,-42.9254
aguas de lindoia,SP,-22.4733,-46.6314
sao jose da bela vista,SP,-20.5935,-47.6424
montanha,ES,-18.1303,-40.3668
santana,AP,-12.9792,-44.0506
santana,AP,-0.045434,-51.1729
jaci,SP,-20.8805,-49.5797
feira nova,PE,-7.94704,-35.3801
feira nova,PE,-10.2616,-37.3147
cachoeira da prata,MG,-19.521,-44.4544
carazinho,RS,-28.2958,-52.7933
cunha,SP,-23.0731,-44.9576
bom jesus da penha,MG,-21.0148,-46.5174
santa isabel do para,PA,,
caxias,MA,-4.86505,-43.3617
pacaembu,SP,-21.5627,-51.2654
mucuri,BA,-18.0754,-39.5565
santaluz,BA,-11.2508,-39.375
tocantinopolis,TO,-6.32447,-47.4224
aruja,SP,-23.3965,-46.32
palmeira,PR,-25.4257,-50.007
palmeira,PR,-27.583,-50.1577
araripina,PE,-7.57073,-40.494
bom conselho,PE,-9.16919,-36.6857
piripa,BA,-14.9444,-41.7168
ponto belo,ES,-18.1253,-40.5458
mangueirinha,PR,-25.9421,-52.1743
monte siao,MG,-22.4335,-46.573
cianorte,PR,-23.6599,-52.6054
aguas da prata,SP,-21.9319,-46.7176
catende,PE,-8.67509,-35.7024
urupes,SP,-21.2032,-49.2931
vila rica,MT,-10.0137,-51.1186
macedonia,SP,-20.1444,-50.1973
sao joao,PE,-25.8214,-52.7252
sao joao,PE,-8.87576,-36.3653
vila nova,PR,,
sao francisco de itabapoana,RJ,-21.4702,-41.1091
esmeraldas,MG,-19.764,-44.3065
portela,RJ,,
borborema,SP,-6.80199,-35.6187
borborema,SP,-21.6214,-49.0741
santa cruz cabralia,BA,-16.2825,-39.0295
palmital,SP,-22.7858,-50.218
palmital,SP,-24.8853,-52.2029
cicero dantas,BA,-10.5897,-38.3794
cachoeira alta,GO,-18.7618,-50.9432
niquelandia,GO,-14.4662,-48.4599
paraguacu paulista,SP,-22.4114,-50.5732
ilha solteira,SP,-20.4326,-51.3426
santo antonio do leverger,MT,-15.8632,-56.0788
girua,RS,-28.0297,-54.3517
serranopolis de minas,MG,-15.8176,-42.8732
morada nova,CE,-5.09736,-38.3702
sarandi,PR,-23.4441,-51.876
sarandi,PR,-27.942,-52.9231
sao pedro da agua branca,MA,-5.08472,-48.4291
antonio carlos,SC,-27.5191,-48.766
antonio carlos,SC,-21.321,-43.7451
jacarezinho,PR,-23.1591,-49.9739
ibirarema,SP,-22.8185,-50.0739
caraiba,PE,,
gaucha do norte,MT,-13.2443,-53.0809
matias barbosa,MG,-21.869,-43.3135
santa tereza do oeste,PR,-25.0543,-53.6274
aguas de sao pedro,SP,-22.5977,-47.8734
candeias,MG,-12.6716,-38.5472
candeias,MG,-20.7692,-45.2765
varzea paulista,SP,-23.2136,-46.8234
pilar do sul,SP,-23.8077,-47.7222
macau,RN,-5.10795,-36.6318
jandaia do sul,PR,-23.6011,-51.6448
jeceaba,MG,-20.5339,-43.9894
vila dos cabanos,PA,,
carinhanha,BA,-14.2985,-43.7724
arace,ES,,
abreu e lima,PE,-7.90072,-34.8984
salto do lontra,PR,-25.7813,-53.3135
santo expedito do sul,RS,-27.9074,-51.6434
tiete,SP,-23.1101,-47.7164
juatuba,MG,-19.9448,-44.3451
bom jesus da lapa,BA,-13.2506,-43.4108
nova santa rosa,PR,-24.4693,-53.9552
garanhuns,PE,-8.88243,-36.4966
abaete,MG,-19.1551,-45.4444
lajedo,PE,-8.65791,-36.3293
barra do tarrachil,BA,,
carandai,MG,-20.9566,-43.811
tupassi,PR,-24.5879,-53.5105
saubara,BA,-12.7387,-38.7625
sao simao,GO,-21.4732,-47.5518
sao simao,GO,-18.996,-50.547
barra velha,SC,-26.637,-48.6933
itaja,GO,-5.63894,-36.8712
itaja,GO,-19.0673,-51.5495
coroata,MA,-4.13442,-44.1244
braganca,PA,-1.06126,-46.7826
rio pardo de minas,MG,-15.616,-42.5405
mamanguape,PB,-6.8337,-35.1213
duere,TO,-11.3416,-49.2716
anage,BA,-14.6151,-41.1356
santo antonio do jacinto,MG,-16.5332,-40.1817
cesario lange,SP,-23.226,-47.9545
sao raimundo nonato,PI,-9.01241,-42.6987
escada,PE,-8.35672,-35.2241
cangucu,RS,-31.396,-52.6783
cantagalo,MG,-21.9797,-42.3664
cantagalo,MG,-25.3734,-52.1198
cantagalo,MG,-18.5248,-42.6223
apore,GO,-18.9607,-51.9232
cajapio,MA,-2.87326,-44.6741
sao gabriel,RS,-30.3337,-54.3217
sao gabriel,RS,-11.2175,-41.8843
santa albertina,SP,-20.0311,-50.7297
capao da porteira,RS,,
nova brasilandia d'oeste,RO,-11.7247,-62.3127
cordeiropolis,SP,-22.4778,-47.4519
dois irmaos,RS,-29.5836,-51.0898
canhotinho,PE,-8.87652,-36.1979
barra do corda,MA,-5.49682,-45.2485
espirito santo do pinhal,SP,-22.1909,-46.7477
xanxere,SC,-26.8747,-52.4036
mansidao,BA,-10.7227,-44.0428
guararema,SP,-23.4112,-46.0369
mostardas,RS,-31.1054,-50.9167
rio do campo,SC,-26.9452,-50.136
currais novos,RN,-6.25484,-36.5146
agua branca,AL,-5.88856,-42.637
agua branca,AL,-7.51144,-37.6357
agua branca,AL,-9.262,-37.938
crateus,CE,-5.16768,-40.6536
garibaldi,RS,-29.259,-51.5352
estancia velha,RS,-29.6535,-51.1843
papanduva,SC,-26.3777,-50.1419
miranda do norte,MA,-3.56313,-44.5814
itambe,BA,-23.6601,-51.9912
itambe,BA,-7.41403,-35.0963
itambe,BA,-15.2429,-40.63
senador canedo,GO,-16.7084,-49.0914
guaraniacu,PR,-25.0968,-52.8755
paraisopolis,MG,-22.5539,-45.7803
antonina,PR,-25.4386,-48.7191
tapejara,RS,-23.7315,-52.8735
tapejara,RS,-28.0652,-52.0097
cabreuva,SP,-23.3053,-47.1362
cassia,MG,-20.5831,-46.9201
mata roma,MA,-3.62035,-43.1112
balneario pinhal,RS,-30.2419,-50.2337
cajati,SP,-24.7324,-48.1223
aracoiaba,CE,-7.78391,-35.0809
aracoiaba,CE,-4.36872,-38.8125
monte alegre de minas,MG,-18.869,-48.881
nova araca,RS,-28.6537,-51.7458
teotonio vilela,AL,-9.91656,-36.3492
jaguariuna,SP,-22.7037,-46.9851
aguas formosas,MG,-17.0802,-40.9384
pojuca,BA,-12.4303,-38.3374
guapo,GO,-16.8297,-49.5345
anastacio,MS,-20.4823,-55.8104
aguas lindas de goias,GO,-15.7617,-48.2816
agua boa,MT,-17.9914,-42.3806
agua boa,MT,-14.051,-52.1601
jaguaribe,CE,-5.90213,-38.6227
senador jose porfirio,PA,-4.31242,-51.5764
itapirapua,GO,-15.8205,-50.6094
hidrolina,GO,-14.7261,-49.4634
vista alegre,RS,-27.3686,-53.4919
iacu,BA,-12.7666,-40.2056
palmeira das missoes,RS,-27.9007,-53.3134
toritama,PE,-8.00955,-36.0637
prudente de morais,MG,-19.4742,-44.1591
itapejara d'oeste,PR,-25.9619,-52.8152
humaita,AM,-27.5691,-53.9695
humaita,AM,-7.51171,-63.0327
sao thome das letras,MG,-21.7218,-44.9849
passos,MG,-20.7193,-46.609
cristalina,GO,-16.7676,-47.6131
benedito novo,SC,-26.781,-49.3593
santo amaro,BA,-12.5472,-38.7137
marinopolis,SP,-20.4389,-50.8254
divinolandia de minas,MG,-18.8004,-42.6103
itutinga,MG,-21.3,-44.6567
santana do paraiso,MG,-19.3661,-42.5446
itaperuna,RJ,-21.1997,-41.8799
lupionopolis,PR,-22.755,-51.6601
itirapina,SP,-22.2562,-47.8166
alto paraiso,RO,-26.1146,-52.7469
alto paraiso,RO,-9.71429,-63.3188
visconde do rio branco,MG,-21.0127,-42.8361
taiobeiras,MG,-15.8106,-42.2259
eloi mendes,MG,-21.6088,-45.5691
campina verde,MG,-19.5382,-49.4862
mae do rio,PA,-2.05683,-47.5601
orizona,GO,-17.0334,-48.2964
sapopema,PR,-23.9078,-50.5801
boa vista do sul,RS,-29.3544,-51.6687
teutonia,RS,-29.4482,-51.8044
nepomuceno,MG,-21.2324,-45.235
paula candido,MG,-20.8754,-42.9752
itapeva,SP,-23.9788,-48.8764
itapeva,SP,-22.7665,-46.2241
aurora,CE,-6.93349,-38.9742
aurora,CE,-27.3098,-49.6295
igapora,BA,-13.774,-42.7155
bom jesus do galho,MG,-19.836,-42.3165
bezerros,PE,-8.2328,-35.796
piranga,MG,-20.6834,-43.2967
pereira barreto,SP,-20.6368,-51.1123
itamari,BA,-13.7782,-39.683
itaguacu da bahia,BA,-11.0147,-42.3997
lindoia do sul,SC,-27.0545,-52.069
mirassol d'oeste,MT,-15.6759,-58.0951
capitolio,MG,-20.6164,-46.0493
mariana,MG,-20.3765,-43.414
eldorado do sul,RS,-30.0847,-51.6187
sao miguel arcanjo,SP,-23.8782,-47.9935
aparecida,SP,-6.78466,-38.0803
aparecida,SP,-22.8495,-45.2325
encantado,RS,-29.2351,-51.8703
bastos,SP,-21.921,-50.7357
santo antonio do sudoeste,PR,-26.0737,-53.7251
jesuitas,PR,-24.3839,-53.3849
ibirama,SC,-27.0547,-49.5193
chapada dos guimaraes,MT,-15.4643,-55.7499
piritiba,BA,-11.73,-40.5587
aimores,MG,-19.5007,-41.0746
madre de deus,BA,-12.7446,-38.6153
uruana de minas,MG,-16.0634,-46.2443
gramado xavier,RS,-29.2706,-52.5795
planalto,RS,-14.6654,-40.4718
planalto,RS,-27.3297,-53.0575
planalto,RS,-21.0342,-49.933
planalto,RS,-25.7211,-53.7642
goitacazes,RJ,,
presidente venceslau,SP,-21.8732,-51.8447
buri,SP,-23.7977,-48.5958
medeiros,MG,-19.9865,-46.2181
balneario picarras,SC,-26.7639,-48.6717
cacoal,RO,-11.4343,-61.4562
bandeirantes,MS,-19.9275,-54.3585
bandeirantes,MS,-23.1078,-50.3704
santa cecilia,SC,-26.9592,-50.4252
santa cecilia,SC,-7.7389,-35.8764
alegrete,RS,-29.7902,-55.7949
sao joaquim,SC,-28.2887,-49.9457
maria da fe,MG,-22.3044,-45.3773
guarai,TO,-8.83543,-48.5114
colinas,RS,-29.3948,-51.8556
colinas,RS,-6.03199,-44.2543
raposos,MG,-19.9636,-43.8079
palestina,SP,-9.67493,-37.339
palestina,SP,-20.39,-49.4309
sao bento do una,PE,-8.52637,-36.4465
quitandinha,PR,-25.8734,-49.4973
pompeia,SP,-22.107,-50.176
colonia leopoldina,AL,-8.91806,-35.7214
rio branco do sul,PR,-25.1892,-49.3115
ituporanga,SC,-27.4101,-49.5963
quilometro 14 do mutum,ES,,
sao jose do egito,PE,-7.46945,-37.274
sao francisco do humaita,MG,,
simonesia,MG,-20.1341,-42.0091
lagoa grande,PE,-17.8323,-46.5165
lagoa grande,PE,-8.99452,-40.2767
guara,SP,-20.4302,-47.8236
penha,SC,-26.7754,-48.6465
iguai,BA,-14.7528,-40.0894
remanso,BA,-9.61944,-42.0848
sao miguel do gostoso,RN,-5.12302,-35.6354
pongai,SP,-21.7396,-49.3604
gandu,BA,-13.7441,-39.4747
alto alegre do maranhao,MA,-4.213,-44.446
otacilio costa,SC,-27.4789,-50.1231
lajinha,MG,-20.1539,-41.6228
ruy barbosa,BA,-5.88745,-35.933
ruy barbosa,BA,-12.2816,-40.4931
santana do araguaia,PA,-9.3281,-50.35
triunfo,RS,-29.9291,-51.7075
triunfo,RS,-6.5713,-38.5986
triunfo,RS,-7.83272,-38.0978
viana,ES,-20.3825,-40.4933
viana,ES,-3.20451,-44.9912
sao jose de ribamar,MA,-2.54704,-44.0597
murici,AL,-9.30682,-35.9428
arapoema,TO,-7.65463,-49.0637
cuite velho,MG,,
santana do manhuacu,MG,-20.1031,-41.9278
nazareno,MG,-21.2168,-44.6138
campo alegre,AL,-26.195,-49.2676
campo alegre,AL,-9.78451,-36.3525
candelaria,RS,-29.6684,-52.7895
pranchita,PR,-26.0209,-53.7397
augusto pestana,RS,-28.5172,-53.9883
barcarena,PA,-1.51187,-48.6195
laguna,SC,-28.4843,-48.7772
parnaiba,PI,-2.90585,-41.7754
tanabi,SP,-20.6228,-49.6563
paty do alferes,RJ,-22.4309,-43.4285
seara,SC,-27.1564,-52.299
itinga,MG,-16.61,-41.7672
mossamedes,GO,-16.124,-50.2136
andradas,MG,-22.0695,-46.5724
santana do mundau,AL,-9.17141,-36.2176
papucaia,RJ,,
nova prata,RS,-28.7799,-51.6113
angelo frechiani,ES,,
nova serrana,MG,-19.8713,-44.9847
cristina,MG,-22.208,-45.2673
itaporanga,PB,-23.7043,-49.4819
itaporanga,PB,-7.30202,-38.1504
areal,RJ,-22.2283,-43.1118
sao joao del rei,MG,-21.1311,-44.2526
salesopolis,SP,-23.5288,-45.8465
marmeleiro,PR,-26.1472,-53.0267
conceicao do para,MG,-19.7456,-44.8945
juti,MS,-22.8596,-54.6061
nova alvorada do sul,MS,-21.4657,-54.3825
campinorte,GO,-14.3137,-49.1511
martinopolis,SP,-22.1462,-51.1709
pirapora,MG,-17.3392,-44.934
paraguacu,MG,-21.5465,-45.7374
barra dos coqueiros,SE,-10.8996,-37.0323
anta gorda,RS,-28.9698,-52.0102
miguel calmon,BA,-11.4299,-40.6031
cabeceira grande,MG,-16.0335,-47.0862
sao cristovao do sul,SC,-27.2666,-50.4388
ilopolis,RS,-28.9282,-52.1258
curiuva,PR,-24.0362,-50.4576
resplendor,MG,-19.3194,-41.2462
itai,SP,-23.4213,-49.092
monte alegre do sul,SP,-22.6817,-46.681
sao sebastiao da grama,SP,-21.7041,-46.8208
mafra,SC,-26.1159,-49.8086
araci,BA,-11.3253,-38.9584
buritama,SP,-21.0661,-50.1475
luiziania,SP,-21.6737,-50.3294
buritis,MG,-10.1943,-63.8324
buritis,MG,-15.6218,-46.4221
morrinhos,GO,-17.7334,-49.1059
morrinhos,GO,-3.23426,-40.1233
sao lourenco da mata,PE,-8.00684,-35.0124
praia grande,ES,-24.0084,-46.4121
praia grande,ES,-29.1918,-49.9525
santa cruz,RN,-6.22475,-36.0193
santa cruz,RN,-6.5237,-38.0617
santa cruz,RN,-8.24153,-40.3434
tuiuti,SP,-22.8193,-46.6937
nova cantu,PR,-24.6723,-52.5661
pinheiral,RJ,-22.5172,-44.0022
trombudo central,SC,-27.3033,-49.793
acu,RN,-5.58362,-36.914
cristal,RS,-31.0046,-52.0436
santo andre,PB,-23.6737,-46.5432
santo andre,PB,-7.22016,-36.6213
parambu,CE,-6.20768,-40.6905
sumidouro,RJ,-22.0485,-42.6761
lagarto,SE,-10.9136,-37.6689
putinga,RS,-29.0045,-52.1569
caxambu,MG,-21.9753,-44.9319
presidente castello branco,SC,-27.2218,-51.8089
capinzal,SC,-27.3473,-51.6057
nova veneza,SC,-28.6338,-49.5055
nova veneza,SC,-16.3695,-49.3168
andorinha,BA,-10.3482,-39.8391
telemaco borba,PR,-24.3245,-50.6176
santa gertrudes,SP,-22.4572,-47.5272
nova era,MG,-19.7577,-43.0333
itapiranga,SC,-2.74081,-58.0293
itapiranga,SC,-27.1659,-53.7166
camamu,BA,-13.9398,-39.1071
rosana,SP,-22.5782,-53.0603
cachoeirinha,RS,-6.1156,-47.9234
cachoeirinha,RS,-8.48668,-36.2402
cachoeirinha,RS,-29.9472,-51.1016
alem paraiba,MG,-21.8797,-42.7176
itamaraju,BA,-17.0378,-39.5386
acopiara,CE,-6.08911,-39.448
barra de sao joao,RJ,,
arrozal,RJ,,
santana do livramento,RS,-30.8773,-55.5392
itabela,BA,-16.5732,-39.5593
nova andradina,MS,-22.238,-53.3437
manhumirim,MG,-20.3591,-41.9589
olaria,MG,-21.8598,-43.9356
caninde,CE,-4.35162,-39.3155
itaqui,RS,-29.1311,-56.5515
tucuma,PA,-6.74687,-51.1626
santa isabel do ivai,PR,-23.0025,-53.1989
santa terezinha,PE,-26.7813,-50.009
santa terezinha,PE,-10.4704,-50.514
santa terezinha,PE,-7.37696,-37.4787
goianira,GO,-16.4947,-49.427
jacutinga,MG,-27.7291,-52.5372
jacutinga,MG,-22.286,-46.6166
bonito de santa fe,PB,-7.31341,-38.5133
valao do barro,RJ,,
milagres,BA,-7.29749,-38.9378
milagres,BA,-12.8646,-39.8611
piedade,SP,-23.7139,-47.4256
conceicao da barra,ES,-18.5883,-39.7362
torrinha,SP,-22.4237,-48.1731
engenheiro passos,RJ,,
cristais,MG,-20.8733,-45.5167
canaa dos carajas,PA,-6.49659,-49.8776
alto parana,PR,-23.1312,-52.3189
senador cortes,MG,-21.7986,-42.9424
bom jesus do itabapoana,RJ,-21.1449,-41.6822
frei inocencio,MG,-18.5556,-41.9121
luziania,GO,-16.253,-47.95
taiuva,SP,-21.1223,-48.4528
conceicao do mato dentro,MG,-19.0344,-43.4221
orindiuva,SP,-20.1861,-49.3464
zortea,SC,-27.4521,-51.552
brumadinho,MG,-20.151,-44.2007
bandeirantes,PR,-19.9275,-54.3585
bandeirantes,PR,-23.1078,-50.3704
ceu azul,PR,-25.1489,-53.8415
boa esperanca,ES,-24.2467,-52.7876
boa esperanca,ES,-21.0927,-45.5612
boa esperanca,ES,-18.5395,-40.3025
campina da lagoa,PR,-24.5893,-52.7976
santo antonio do jardim,SP,-22.1121,-46.6845
primavera,SP,-8.32999,-35.3544
primavera,SP,-0.945439,-47.1253
formoso,MG,-13.6499,-48.8775
formoso,MG,-14.9446,-46.2371
portao,RS,-29.7015,-51.2429
porto amazonas,PR,-25.54,-49.8946
sinimbu,RS,-29.5357,-52.5304
barra bonita,SP,-26.654,-53.44
barra bonita,SP,-22.4909,-48.5583
apiai,SP,-24.5108,-48.8443
porto real,RJ,-22.4175,-44.2952
umbauba,SE,-11.3809,-37.6623
boqueirao do leao,RS,-29.3046,-52.4284
sabara,MG,-19.884,-43.8263
terra nova do norte,MT,-10.517,-55.231
conservatoria,RJ,,
juquia,SP,-24.3101,-47.6426
joacaba,SC,-27.1721,-51.5108
sao luiz gonzaga,RS,-28.412,-54.9559
camapua,MS,-19.5347,-54.0431
igarape,MG,-20.0707,-44.2994
santa ernestina,SP,-21.4618,-48.3953
colonia vitoria,PR,,
itamonte,MG,-22.2859,-44.868
sao joao d'alianca,GO,-14.7048,-47.5228
corumbaiba,GO,-18.1415,-48.5626
serra negra,SP,-22.6139,-46.7033
general carneiro,PR,-15.7094,-52.7574
general carneiro,PR,-26.425,-51.3172
porciuncula,RJ,-20.9632,-42.0465
paranaita,MT,-9.65835,-56.4786
imperatriz,MA,-5.51847,-47.4777
posse,GO,-14.0859,-46.3704
fortuna,MA,-5.72792,-44.1565
vermelho,MG,,
trindade do sul,RS,-27.5239,-52.8956
munhoz,MG,-22.6092,-46.362
joao pinheiro,MG,-17.7398,-46.1715
bocaiuva,MG,-17.1135,-43.8104
brejo dos santos,PB,-6.37065,-37.8253
itororo,BA,-15.11,-40.0684
duartina,SP,-22.4146,-49.4084
campestre da serra,RS,-28.7926,-51.0941
cabedelo,PB,-6.98731,-34.8284
petrolandia,PE,-9.06863,-38.3027
petrolandia,PE,-27.5346,-49.6937
dores do indaia,MG,-19.4628,-45.5927
caridade,CE,-4.22514,-39.1912
pato bragado,PR,-24.6271,-54.2265
jardinopolis,SP,-21.0176,-47.7606
jardinopolis,SP,-26.7191,-52.8625
ibema,PR,-25.1193,-53.0072
itapeva,MG,-23.9788,-48.8764
itapeva,MG,-22.7665,-46.2241
sobradinho,DF,-9.45024,-40.8145
sobradinho,DF,-29.4194,-53.0326
pinhao,PR,-10.5677,-37.7242
pinhao,PR,-25.6944,-51.6536
carapebus,RJ,-22.1821,-41.663
inaciolandia,GO,-18.4869,-49.9888
novo repartimento,PA,-4.24749,-49.9499
paicandu,PR,-23.4555,-52.046
guaranta do norte,MT,-9.96218,-54.9121
coxilha,RS,-28.128,-52.3023
ipojuca,PE,-8.39303,-35.0609
brauna,SP,-21.499,-50.3175
iguatu,CE,-6.36281,-39.2892
iguatu,CE,-24.7153,-53.0827
morro do chapeu,BA,-11.5488,-41.1565
cerejeiras,RO,-13.187,-60.8168
jussara,PR,-11.0431,-41.9702
jussara,PR,-15.8659,-50.8668
jussara,PR,-23.6219,-52.4693
barras,PI,-4.24468,-42.2922
irapuru,SP,-21.5684,-51.3472
diamante d'oeste,PR,-24.9419,-54.1052
aparecida de sao manuel,SP,,
vilhena,RO,-12.7502,-60.1488
sao pedro do ivai,PR,-23.8634,-51.8568
sirinhaem,PE,-8.58778,-35.1126
mato verde,MG,-15.3944,-42.86
paraiso das aguas,MS,-19.0216,-53.0116
mirante da serra,RO,-11.029,-62.6696
rio novo,MG,-21.4649,-43.1168
pirapora do bom jesus,SP,-23.3965,-46.9991
vazante,MG,-17.9827,-46.9088
conceicao do castelo,ES,-20.3639,-41.2417
junqueiropolis,SP,-21.5103,-51.4342
simplicio mendes,PI,-7.85294,-41.9075
bom jardim de minas,MG,-21.9479,-44.1885
tupi paulista,SP,-21.3825,-51.575
sao sebastiao,AL,-23.7951,-45.4143
sao sebastiao,AL,-9.93043,-36.559
campestre do maranhao,MA,-6.17075,-47.3625
santa vitoria do palmar,RS,-33.525,-53.3717
dois vizinhos,PR,-25.7407,-53.057
pirapetinga,MG,-21.6554,-42.3434
witmarsum,SC,-26.9275,-49.7947
itapage,CE,,
simoes filho,BA,-12.7866,-38.4029
surubim,PE,-7.84746,-35.7481
laranjal,MG,-21.3715,-42.4732
laranjal,MG,-24.8862,-52.47
nova esperanca,PR,-23.182,-52.2031
deputado irapuan pinheiro,CE,-5.91485,-39.257
aquidaba,SE,-10.278,-37.0148
arroio dos ratos,RS,-30.0875,-51.7275
reserva do cabacal,MT,-15.0743,-58.4585
cantanhede,MA,-3.63757,-44.383
cachoeira de pajeu,MG,-15.9688,-41.4948
rio pardo,RS,-29.988,-52.3711
esplanada,BA,-11.7942,-37.9432
engenheiro paulo de frontin,RJ,-22.5498,-43.6827
bom jesus do araguaia,MT,-12.1706,-51.5032
sao geraldo,MG,-20.9252,-42.8364
catu de abrantes,BA,,
jacinto,MG,-16.1428,-40.295
piranguinho,MG,-22.395,-45.5324
piedade de caratinga,MG,-19.7593,-42.0756
capela de santana,RS,-29.6961,-51.328
santa maria de jetiba,ES,-20.0253,-40.7439
carpina,PE,-7.84566,-35.2514
nova ponte,MG,-19.1461,-47.6779
sao jose de mipibu,RN,-6.0773,-35.2417
urania,SP,-20.2455,-50.6455
sao jose do ouro,RS,-27.7707,-51.5966
sao luis do quitunde,AL,-9.31816,-35.5606
pancas,ES,-19.2229,-40.8534
santos dumont,MG,-21.4634,-43.5499
delfinopolis,MG,-20.3468,-46.8456
missal,PR,-25.0919,-54.2477
auriflama,SP,-20.6836,-50.5572
quadra,SP,-23.2993,-48.0547
quedas do iguacu,PR,-25.4492,-52.9102
guaira,PR,-20.3196,-48.312
guaira,PR,-24.085,-54.2573
campinacu,GO,-13.787,-48.5704
caririacu,CE,-7.02808,-39.2828
dom silverio,MG,-20.1627,-42.9627
sao jose do calcado,ES,-21.0274,-41.6636
ibipeba,BA,-11.6438,-42.0195
araguatins,TO,-5.64659,-48.1232
araujos,MG,-19.9405,-45.1671
bonfinopolis de minas,MG,-16.568,-45.9839
angicos,RN,-5.65792,-36.6094
santo antonio das missoes,RS,-28.514,-55.2251
quixada,CE,-4.9663,-39.0155
palmitinho,RS,-27.3596,-53.558
presidente kennedy,ES,-8.5406,-48.5062
presidente kennedy,ES,-21.0964,-41.0468
analandia,SP,-22.1289,-47.6619
nova granada,SP,-20.5321,-49.3123
mercedes,PR,-24.4538,-54.1618
canapolis,MG,-13.0725,-44.201
canapolis,MG,-18.7212,-49.2035
tapes,RS,-30.6683,-51.3991
vere,PR,-25.8772,-52.9051
sao felix do xingu,PA,-6.64254,-51.9904
cariri do tocantins,TO,-11.8881,-49.1609
dormentes,PE,-8.44116,-40.7662
mutum,MG,-19.8121,-41.4407
sao jose do xingu,MT,-10.7982,-52.7486
quatis,RJ,-22.4045,-44.2597
caratinga,MG,-19.7868,-42.1292
paranapanema,SP,-23.3862,-48.7214
tramandai,RS,-29.9841,-50.1322
sao jose da barra,MG,-20.7178,-46.313
cambui,MG,-22.6115,-46.0572
itaju,SP,-21.9857,-48.8116
pilao arcado,BA,-10.0051,-42.4936
jaguaracu,MG,-19.647,-42.7498
mimoso de goias,GO,-15.0515,-48.1611
sao gabriel do oeste,MS,-19.3889,-54.5507
oros,CE,-6.25182,-38.9053
araputanga,MT,-15.4641,-58.3425
ceara-mirim,RN,-5.64323,-35.4247
indianopolis,PR,-23.4762,-52.6989
indianopolis,PR,-19.0341,-47.9155
candeias,BA,-12.6716,-38.5472
candeias,BA,-20.7692,-45.2765
caucaia,CE,-3.72797,-38.6619
crisopolis,BA,-11.5059,-38.1515
quevedos,RS,-29.3504,-54.0789
araguapaz,GO,-15.0909,-50.6315
estiva gerbi,SP,-22.2713,-46.9481
nuporanga,SP,-20.7296,-47.7429
sardoa,MG,-18.7828,-42.3629
chapadao do ceu,GO,-18.4073,-52.549
santa terezinha de itaipu,PR,-25.4391,-54.402
cacule,BA,-14.5003,-42.2229
floresta,PR,-23.6031,-52.0807
floresta,PR,-8.60307,-38.5687
machacalis,MG,-17.0723,-40.7245
camacan,BA,-15.4142,-39.4919
roseira,SP,-22.8938,-45.307
itaiopolis,SC,-26.339,-49.9092
barra do bugres,MT,-15.0702,-57.1878
sousa,PB,-6.75148,-38.2311
castilho,SP,-20.8689,-51.4884
potirendaba,SP,-21.0428,-49.3815
tarumirim,MG,-19.2835,-42.0097
mendes,RJ,-22.5245,-43.7312
campo verde,MT,-15.545,-55.1626
bom jardim,RJ,-22.1545,-42.4251
bom jardim,RJ,-7.79695,-35.5784
bom jardim,RJ,-3.54129,-45.606
ivaipora,PR,-24.2485,-51.6754
santana do serido,RN,-6.76643,-36.7312
iconha,ES,-20.7913,-40.8132
conceicao do araguaia,PA,-8.26136,-49.2689
abatia,PR,-23.3049,-50.3133
amelia rodrigues,BA,-12.3914,-38.7563
candido rodrigues,SP,-21.3275,-48.6327
coronel vivida,PR,-25.9767,-52.5641
vitoria de santo antao,PE,-8.12819,-35.2976
ielmo marinho,RN,-5.82447,-35.55
cosmorama,SP,-20.4755,-49.7827
arroio do meio,RS,-29.4014,-51.9557
santa luzia,MA,-4.06873,-45.69
santa luzia,MA,-15.4342,-39.3287
santa luzia,MA,-19.7548,-43.8497
santa luzia,MA,-6.86092,-36.9178
urupa,RO,-11.1261,-62.3639
sao sebastiao da boa vista,PA,-1.71597,-49.5249
varzedo,BA,-12.9672,-39.3919
piranhas,GO,-9.624,-37.757
piranhas,GO,-16.4258,-51.8235
corumba de goias,GO,-15.9245,-48.8117
saltinho,SP,-26.6049,-53.0578
saltinho,SP,-22.8442,-47.6754
dianopolis,TO,-11.624,-46.8198
espigao,SP,,
salmourao,SP,-21.6267,-50.8614
quixere,CE,-5.07148,-37.9802
esperanca,PB,-7.02278,-35.8597
bariri,SP,-22.073,-48.7438
girau do ponciano,AL,-9.88404,-36.8316
joao lisboa,MA,-5.44363,-47.4064
porecatu,PR,-22.7537,-51.3795
lima duarte,MG,-21.8386,-43.7934
malacacheta,MG,-17.8456,-42.0769
umburatiba,MG,-17.2548,-40.5779
santa margarida,MG,-20.3839,-42.2519
sao mateus do sul,PR,-25.8677,-50.384
arapei,SP,-22.6717,-44.4441
avanhandava,SP,-21.4584,-49.9509
novo horizonte,SC,-26.4442,-52.8281
novo horizonte,SC,-21.4651,-49.2234
novo horizonte,SC,-12.8083,-42.1682
camanducaia,MG,-22.7515,-46.1494
paraiso,SP,-21.0159,-48.7761
paraiso,SP,-26.62,-53.6716
mirai,MG,-21.2021,-42.6122
ribeirao do pinhal,PR,-23.4091,-50.3601
upanema,RN,-5.63761,-37.2635
domiciano ribeiro,GO,,
promissao,SP,-21.5356,-49.8599
conselheiro pena,MG,-19.1789,-41.4736
uruoca,CE,-3.30819,-40.5628
vargem grande do sul,SP,-21.8322,-46.8913
brotas,SP,-22.2795,-48.1251
sao joao batista do gloria,MG,-20.635,-46.508
alexania,GO,-16.0834,-48.5076
juranda,PR,-24.4209,-52.8413
fartura,SP,-23.3916,-49.5124
mateus leme,MG,-19.9794,-44.4318
monte azul,MG,-15.1514,-42.8718
santa cruz do capibaribe,PE,-7.94802,-36.2061
macaiba,RN,-5.85229,-35.3552
quata,SP,-22.2456,-50.6966
teodoro sampaio,SP,-12.295,-38.6347
teodoro sampaio,SP,-22.5299,-52.1682
almino afonso,RN,-6.1475,-37.7636
vargem alegre,MG,-19.5988,-42.2949
arroio grande,RS,-32.2327,-53.0862
jaboticatubas,MG,-19.5119,-43.7373
parelhas,RN,-6.68491,-36.6566
alto alegre do iguacu,PR,,
joaquim tavora,PR,-23.4987,-49.909
bataypora,MS,-22.2944,-53.2705
bombinhas,SC,-27.1382,-48.5146
fernando prestes,SP,-21.2661,-48.6874
rio largo,AL,-9.47783,-35.8394
itabaiana,SE,-7.33167,-35.3317
itabaiana,SE,-10.6826,-37.4273
sideropolis,SC,-28.5955,-49.4314
utinga,BA,-12.0783,-41.0954
rondon do para,PA,-4.77793,-48.067
mirante do paranapanema,SP,-22.2904,-51.9084
oriente,SP,-22.1549,-50.0971
sapucai-mirim,MG,-22.7409,-45.738
tres passos,RS,-27.4555,-53.9296
horizonte,CE,-4.1209,-38.4707
silva jardim,RJ,-22.6574,-42.3961
sanharo,PE,-8.36097,-36.5696
eldorado,SP,-23.7868,-54.2838
eldorado,SP,-24.5281,-48.1141
itacoatiara,AM,-3.13861,-58.4449
acreuna,GO,-17.396,-50.3749
crato,CE,-7.2153,-39.4103
pimenta bueno,RO,-11.672,-61.198
sitio novo do tocantins,TO,-5.6012,-47.6381
ipira,SC,-12.1561,-39.7359
ipira,SC,-27.4038,-51.7758
sao jose do vale do rio preto,RJ,-22.1525,-42.9327
varzea da palma,MG,-17.5944,-44.7226
sao gabriel da palha,ES,-19.0182,-40.5365
holambra,SP,-22.6405,-47.0487
ubata,BA,-14.2063,-39.5207
mar vermelho,AL,-9.44739,-36.3881
governador celso ramos,SC,-27.3172,-48.5576
bandeira,MG,-15.8783,-40.5622
turmalina,MG,-20.0486,-50.4792
turmalina,MG,-17.2828,-42.7285
tabapora,MT,-11.3007,-56.8312
novo cabrais,RS,-29.7338,-52.9489
taquaritinga do norte,PE,-7.89446,-36.0423
castelo,ES,-20.6033,-41.2031
pirajui,SP,-21.999,-49.4608
abdon batista,SC,-27.6126,-51.0233
chui,RS,-33.6866,-53.4594
teolandia,BA,-13.5896,-39.484
sao joao da ponte,MG,-15.9271,-44.0096
santo antonio do monte,MG,-20.085,-45.2947
lavras do sul,RS,-30.8071,-53.8931
jaguare,ES,-18.907,-40.0759
caibi,SC,-27.0741,-53.2458
laranjal paulista,SP,-23.0506,-47.8375
arraial do cabo,RJ,-22.9774,-42.0267
desterro,PB,-7.287,-37.0925
pacajus,CE,-4.17107,-38.465
santa helena,MA,-24.8585,-54.336
santa helena,MA,-26.937,-53.6214
santa helena,MA,-2.24426,-45.29
santa helena,MA,-6.7176,-38.6427
candido mota,SP,-22.7471,-50.3873
sombrio,SC,-29.108,-49.6328
mozarlandia,GO,-14.7457,-50.5713
santa maria madalena,RJ,-21.9547,-42.0098
barra do turvo,SP,-24.759,-48.5013
itaoca,ES,-24.6393,-48.8413
carambei,PR,-24.9152,-50.0986
ulianopolis,PA,-3.75007,-47.4892
jequitai,MG,-17.229,-44.4376
cravinhos,SP,-21.338,-47.7324
santa salete,SP,-20.2429,-50.6887
caldas,MG,-21.9183,-46.3843
itapoa,SC,-26.1158,-48.6182
serra dos aimores,MG,-17.7872,-40.2453
cubati,PB,-6.86686,-36.3619
itapora,MS,-22.08,-54.7934
macuco de minas,MG,,
raul soares,MG,-20.1061,-42.4502
arceburgo,MG,-21.359,-46.9401
tres arroios,RS,-27.5003,-52.1448
terezinha,PE,-9.05621,-36.6272
matinhos,PR,-25.8237,-48.549
americo brasiliense,SP,-21.7288,-48.1147
goianorte,TO,-8.77413,-48.9313
mata de sao joao,BA,-12.5307,-38.3009
codo,MA,-4.45562,-43.8924
santa mariana,PR,-23.1465,-50.5167
braco do norte,SC,-28.2681,-49.1701
sao sebastiao do passe,BA,-12.5123,-38.4905
sao jose dos cordeiros,PB,-7.38775,-36.8085
guarani das missoes,RS,-28.1491,-54.5629
manga,MG,-14.7529,-43.9391
presidente kubitschek,MG,-18.6193,-43.5628
guabiruba,SC,-27.0808,-48.9804
cidade ocidental,GO,-16.0765,-47.9252
guanhaes,MG,-18.7713,-42.9312
carneirinho,MG,-19.6987,-50.6894
bacabal,MA,-4.22447,-44.7832
sapucaia,RJ,-6.94018,-49.6834
sapucaia,RJ,-21.9949,-42.9142
cabaceiras do paraguacu,BA,-12.5317,-39.1902
belem,AL,-1.4554,-48.4898
belem,AL,-6.74261,-35.5166
belem,AL,-9.57047,-36.4904
colombia,SP,-20.1768,-48.6865
guaramirim,SC,-26.4688,-49.0026
paraiso do norte,PR,-23.2824,-52.6054
quixelo,CE,-6.24637,-39.2011
ouro fino,MG,-22.2779,-46.3716
jardim,CE,-7.57599,-39.2826
jardim,CE,-21.4799,-56.1489
janduis,RN,-6.01474,-37.4048
nipoa,SP,-20.9114,-49.7833
florestopolis,PR,-22.8623,-51.3882
caturama,BA,-13.3239,-42.2904
sao jose do turvo,RJ,,
sao sebastiao de campos,RJ,,
colider,MT,-10.8135,-55.461
granja,CE,-3.12788,-40.8372
santa rita,PB,-3.14241,-44.3211
santa rita,PB,-7.11724,-34.9753
vila valerio,ES,-18.9958,-40.3849
acailandia,MA,-4.94714,-47.5004
adustina,BA,-10.5437,-38.1113
bom sucesso,MG,-21.0329,-44.7537
bom sucesso,MG,-23.7063,-51.7671
bom sucesso,MG,-6.44176,-37.9234
brejo santo,CE,-7.48469,-38.9799
santa quiteria do maranhao,MA,-3.49308,-42.5688
sapeacu,BA,-12.7208,-39.1824
constantina,RS,-27.732,-52.9938
bom jesus da serra,BA,-14.3663,-40.5126
natividade,RJ,-11.7034,-47.7223
natividade,RJ,-21.039,-41.9697
palotina,PR,-24.2868,-53.8404
jucurutu,RN,-6.0306,-37.009
pratapolis,MG,-20.7411,-46.8624
itueta,MG,-19.3999,-41.1746
monte castelo,SP,-26.461,-50.2327
monte castelo,SP,-21.2981,-51.5679
maragogi,AL,-9.00744,-35.2267
conde,BA,-7.25746,-34.8999
conde,BA,-11.8179,-37.6131
santa teresa,ES,-19.9363,-40.5979
jequitinhonha,MG,-16.4375,-41.0117
peri mirim,MA,-2.57676,-44.8504
taquaritinga,SP,-21.4049,-48.5103
santana do ipanema,AL,-9.36999,-37.248
urbano santos,MA,-3.20642,-43.3878
santo antonio do itambe,MG,-18.4609,-43.3006
vargem grande do rio pardo,MG,-15.3987,-42.3085
sao joaquim do monte,PE,-8.43196,-35.8035
cerro azul,PR,-26.0891,-52.8691
cabralia paulista,SP,-22.4576,-49.3393
santana dos montes,MG,-20.7868,-43.6949
agua branca,PI,-5.88856,-42.637
agua branca,PI,-7.51144,-37.6357
agua branca,PI,-9.262,-37.938
pilar,AL,-7.26403,-35.2523
pilar,AL,-9.60135,-35.9543
chapadinha,MA,-3.73875,-43.3538
bom jesus do sul,PR,-26.1958,-53.5955
canelinha,SC,-27.2616,-48.7658
ervalia,MG,-20.8403,-42.6544
caetanopolis,MG,-19.2971,-44.4189
fenix,PR,-23.9135,-51.9805
pouso redondo,SC,-27.2567,-49.9301
flores da cunha,RS,-29.0261,-51.1875
bonito,BA,-8.47163,-35.7292
bonito,BA,-11.9668,-41.2647
bonito,BA,-1.36745,-47.3066
bonito,BA,-21.1261,-56.4836
turvelandia,GO,-17.8502,-50.3024
aguas mornas,SC,-27.6963,-48.8243
porto calvo,AL,-9.05195,-35.3987
pesqueira,PE,-8.35797,-36.6978
camaqua,RS,-30.8489,-51.8043
porto nacional,TO,-10.7027,-48.408
jaguaribara,CE,-5.67765,-38.5359
jacare,SP,,
guaiba,RS,-30.1086,-51.3233
ouro preto do oeste,RO,-10.7167,-62.2565
formosa do oeste,PR,-24.2951,-53.3114
ascurra,SC,-26.9548,-49.3783
vera cruz,RS,-6.04399,-35.428
vera cruz,RS,-12.9568,-38.6153
vera cruz,RS,-29.7184,-52.5152
vera cruz,RS,-22.2183,-49.8207
araguacu,TO,-12.9289,-49.8231
xexeu,PE,-8.8046,-35.6212
redencao,PA,-8.02529,-50.0317
redencao,PA,-4.21587,-38.7277
buriticupu,MA,-4.32375,-46.4409
papagaios,MG,-19.4419,-44.7468
cafelandia,SP,-21.8031,-49.6092
cafelandia,SP,-24.6189,-53.3207
rubiacea,SP,-21.3006,-50.7296
buriti,MA,-3.94169,-42.9179
jarinu,SP,-23.1039,-46.728
santa cruz do timbo,SC,,
pinhalzinho,SC,-22.7811,-46.5897
pinhalzinho,SC,-26.8495,-52.9913
barra,BA,-11.0859,-43.1459
araguaia,ES,,
coaraci,BA,-14.637,-39.5556
quinta do sol,PR,-23.8533,-52.1309
cajobi,SP,-20.8773,-48.8063
lagoa dourada,MG,-20.9139,-44.0797
parisi,SP,-20.3034,-50.0163
alpercata,MG,-18.974,-41.97
tres cachoeiras,RS,-29.4487,-49.9275
celina,ES,,
pureza,RJ,-5.46393,-35.5554
campos belos,GO,-13.035,-46.7681
alta floresta d'oeste,RO,-11.9283,-61.9953
pocinhos,PB,-7.06658,-36.0668
rosario,MA,-2.93444,-44.2531
almirante tamandare do sul,RS,-28.1149,-52.9142
mutunopolis,GO,-13.7303,-49.2745
bela vista de goias,GO,-16.9693,-48.9513
serrana,SP,-21.2043,-47.5952
acarau,CE,-2.88769,-40.1183
cocal do sul,SC,-28.5986,-49.3335
ouro verde,SP,-26.692,-52.3108
ouro verde,SP,-21.4872,-51.7024
caconde,SP,-21.528,-46.6437
palmitos,SC,-27.0702,-53.1586
satuba,AL,-9.56911,-35.8227
santa filomena,PE,-9.11228,-45.9116
santa filomena,PE,-8.16688,-40.6079
amargosa,BA,-13.0215,-39.602
morro da fumaca,SC,-28.6511,-49.2169
morro agudo,SP,-20.7288,-48.0581
joao alfredo,PE,-7.86565,-35.5787
aratuba,CE,-4.41229,-39.0471
sao jorge,RS,-28.4984,-51.7064
conrado,RJ,,
sao joao do manteninha,MG,-18.723,-41.1628
cotipora,RS,-28.9891,-51.6971
brejetuba,ES,-20.1395,-41.2954
sao tomas de aquino,MG,-20.7791,-47.0962
sabino,SP,-21.4593,-49.5755
indianopolis,MG,-23.4762,-52.6989
indianopolis,MG,-19.0341,-47.9155
colinas,MA,-29.3948,-51.8556
colinas,MA,-6.03199,-44.2543
itaocara,RJ,-21.6748,-42.0758
pote,MG,-17.8077,-41.786
presidente medici,RO,-11.169,-61.8986
presidente medici,RO,-2.38991,-45.82
tabapua,SP,-20.9602,-49.0307
reriutaba,CE,-4.14191,-40.5759
jijoca de jericoacoara,CE,-2.79331,-40.5127
bom jesus do norte,ES,-21.1173,-41.6731
morro redondo,RS,-31.5887,-52.6261
timburi,SP,-23.2057,-49.6096
balneario rincao,SC,-28.8314,-49.2352
ladario,MS,-19.0089,-57.5973
campo novo,RS,-27.6792,-53.8052
sao sebastiao do cai,RS,-29.5885,-51.3749
altaneira,CE,-6.99837,-39.7356
lagoa grande,MG,-17.8323,-46.5165
lagoa grande,MG,-8.99452,-40.2767
indiaroba,SE,-11.5157,-37.515
santana da vargem,MG,-21.2449,-45.5005
paulino neves,MA,-2.72094,-42.5258
grao mogol,MG,-16.5662,-42.8923
nova olinda,TO,-7.63171,-48.4252
nova olinda,TO,-7.08415,-39.6713
nova olinda,TO,-7.47232,-38.0382
getulina,SP,-21.7961,-49.9312
santa cruz de monte castelo,PR,-22.9582,-53.2949
primeiro de maio,PR,-22.8517,-51.0293
sao fidelis,RJ,-21.6551,-41.756
elias fausto,SP,-23.0428,-47.3682
calcado,PE,-8.73108,-36.3366
estancia,SE,-11.2659,-37.4484
patrocinio do muriae,MG,-21.1544,-42.2125
pirai do sul,PR,-24.5306,-49.9433
tres coroas,RS,-29.5137,-50.7739
ouro verde de minas,MG,-18.0719,-41.2734
jurema,PE,-8.70714,-36.1347
jurema,PE,-9.21992,-43.1337
sao sebastiao do maranhao,MG,-18.0873,-42.5659
sao marcos,RS,-28.9677,-51.0696
santo estevao,BA,-12.428,-39.2505
jamapara,RJ,,
santo anastacio,SP,-21.9747,-51.6527
jamaica,SP,,
conchas,SP,-23.0154,-48.0134
perdigao,MG,-19.9411,-45.078
mimoso do sul,ES,-21.0628,-41.3615
riacho da cruz,RN,-5.92654,-37.949
sales oliveira,SP,-20.7696,-47.8369
ampere,PR,-25.9168,-53.4686
arembepe,BA,,
pocrane,MG,-19.6208,-41.6334
santa cruz do prata,MG,,
inacio martins,PR,-25.5704,-51.0769
sao domingos do araguaia,PA,-5.53732,-48.7366
divisa alegre,MG,-15.7221,-41.3463
jordania,MG,-15.9009,-40.1841
conchal,SP,-22.3375,-47.1729
sapezal,MT,-12.9892,-58.7645
setubinha,MG,-17.6002,-42.1587
alambari,SP,-23.5503,-47.898
cidade gaucha,PR,-23.3772,-52.9436
novo sao joaquim,MT,-14.9054,-53.0194
santa quiteria,CE,-4.32608,-40.1523
ibiraiaras,RS,-28.3741,-51.6377
catu,BA,-12.3513,-38.3791
porto xavier,RS,-27.9082,-55.1379
aragoiania,GO,-16.9087,-49.4476
janiopolis,PR,-24.1401,-52.7784
rolante,RS,-29.6462,-50.5819
sao roque do canaa,ES,-19.7411,-40.6526
buenos aires,PE,-7.72449,-35.3182
piquete,SP,-22.6069,-45.1869
ourizona,PR,-23.4053,-52.1964
santa barbara do sul,RS,-28.3653,-53.251
ibimirim,PE,-8.54026,-37.7032
charqueadas,RS,-29.9625,-51.6289
itambe,PR,-23.6601,-51.9912
itambe,PR,-7.41403,-35.0963
itambe,PR,-15.2429,-40.63
pimenteiras,PI,-6.23839,-41.4113
croata,CE,-4.40481,-40.9022
alvinopolis,MG,-20.1098,-43.0535
campos sales,CE,-7.06761,-40.3687
conceicao do caninde,PI,-7.87638,-41.5942
nossa senhora das dores,SE,-10.4854,-37.1963
santa rita d'oeste,SP,-20.1414,-50.8358
pedra preta,MT,-5.57352,-36.1084
pedra preta,MT,-16.6245,-54.4722
guarabira,PB,-6.85064,-35.485
imbe,RS,-29.9753,-50.1281
tres barras,SC,-26.1056,-50.3197
peixoto de azevedo,MT,-10.2262,-54.9794
ubirata,PR,-24.5393,-52.9865
queimadas,BA,-7.35029,-35.9031
queimadas,BA,-10.9736,-39.6293
assai,PR,-23.3697,-50.8459
piedade dos gerais,MG,-20.4715,-44.2243
santa helena de goias,GO,-17.8115,-50.5977
nova canaa do norte,MT,-10.558,-55.953
mari,PB,-7.05942,-35.318
ubaira,BA,-13.2714,-39.666
jacobina,BA,-11.1812,-40.5117
ivinhema,MS,-22.3046,-53.8184
glicerio,RJ,-21.3812,-50.2123
maurilandia,GO,-17.9719,-50.3388
marataizes,ES,-21.0398,-40.8384
sonora,MS,-17.5698,-54.7551
maracai,SP,-22.6149,-50.6713
luis correia,PI,-2.88438,-41.6641
julio de castilhos,RS,-29.2299,-53.6772
siqueira campos,PR,-23.6875,-49.8304
centenario do sul,PR,-22.8188,-51.5973
caetite,BA,-14.0684,-42.4861
novo cruzeiro,MG,-17.4654,-41.8826
sao jorge do oeste,PR,,
baianopolis,BA,-12.3016,-44.5388
ipanema,MG,-19.7992,-41.7164
rio fortuna,SC,-28.1244,-49.1068
bela vista de minas,MG,-19.8302,-43.0922
divinolandia,SP,-21.6637,-46.7361
goiatuba,GO,-18.0105,-49.3658
passo de torres,SC,-29.3099,-49.722
barra de santa rosa,PB,-6.71816,-36.0671
sao francisco,MG,-20.3623,-50.6952
sao francisco,MG,-6.60773,-38.0968
sao francisco,MG,-10.3442,-36.8869
sao francisco,MG,-15.9514,-44.8593
marilandia,ES,-19.4114,-40.5456
meleiro,SC,-28.8244,-49.6378
guidoval,MG,-21.155,-42.7887
rio das pedras,SP,-22.8417,-47.6047
sao goncalo do para,MG,-19.9822,-44.8593
sao jeronimo,RS,-29.9716,-51.7251
guarei,SP,-23.3714,-48.1837
salto da divisa,MG,-16.0063,-39.9391
sao joaquim de bicas,MG,-20.048,-44.2749
general camara,RS,-29.9032,-51.7612
sao bento abade,MG,-21.5839,-45.0699
iacanga,SP,-21.8896,-49.031
sobradinho,BA,-9.45024,-40.8145
sobradinho,BA,-29.4194,-53.0326
santo antonio do grama,MG,-20.3185,-42.6047
coronel pacheco,MG,-21.5898,-43.256
oeiras do para,PA,-2.00358,-49.8628
torres,RS,-29.3334,-49.7333
sao ludgero,SC,-28.3144,-49.1806
jose boiteux,SC,-26.9566,-49.6286
bananal,SP,-22.6819,-44.3281
mojui dos campos,PA,-2.6822,-54.6425
xangri-la,RS,-29.8065,-50.0519
farol,PR,-24.0958,-52.6217
sao lourenco do oeste,SC,-26.3557,-52.8498
campanario,MG,-18.2427,-41.7355
paulistana,PI,-8.13436,-41.1431
nova roma do sul,RS,-28.9882,-51.4095
alto taquari,MT,-17.8241,-53.2792
biritinga,BA,-11.6072,-38.8051
ipaba,MG,-19.4158,-42.4139
cocais,MG,,
arenapolis,MT,-14.4472,-56.8437
bom jesus das selvas,MA,-4.47638,-46.8641
brejo grande,SE,-10.4297,-36.4611
bom repouso,MG,-22.4675,-46.144
capanema,PA,-1.20529,-47.1778
capanema,PA,-25.6691,-53.8055
nazare da mata,PE,-7.74149,-35.2193
sao miguel do iguacu,PR,-25.3492,-54.2405
nova olinda do maranhao,MA,-2.84227,-45.6953
riolandia,SP,-19.9868,-49.6836
catanduvas,SC,-25.2044,-53.1548
catanduvas,SC,-27.069,-51.6602
boa viagem,CE,-5.11258,-39.7337
senador pompeu,CE,-5.58244,-39.3704
sao goncalo do sapucai,MG,-21.8932,-45.5893
costa marques,RO,-12.4367,-64.228
itapaje,CE,-3.68314,-39.5855
minduri,MG,-21.6797,-44.6051
porto belo,SC,-27.1586,-48.5469
sao luis do curu,CE,-3.66976,-39.2391
junqueiro,AL,-9.90696,-36.4803
inhambupe,BA,-11.781,-38.355
irineopolis,SC,-26.242,-50.7957
pirapozinho,SP,-22.2711,-51.4976
aroeiras,PB,-7.54473,-35.7066
campo do meio,MG,-21.1127,-45.8273
armazem,SC,-28.2448,-49.0215
presidente janio quadros,BA,-14.6885,-41.6798
palma sola,SC,-26.3471,-53.2771
sao joao,PR,-25.8214,-52.7252
sao joao,PR,-8.87576,-36.3653
nova santa rita,RS,-29.8525,-51.2837
nova santa rita,RS,-8.09707,-42.0471
juara,MT,-11.2639,-57.5244
vale real,RS,-29.3919,-51.2559
pinheiro machado,RS,-31.5794,-53.3798
jacaraci,BA,-14.8541,-42.4329
santa maria de itabira,MG,-19.4431,-43.1064
santa rita de minas,MG,-19.876,-42.1363
sitio do quinto,BA,-10.3545,-38.2213
varjao de minas,MG,-18.3741,-46.0313
paco do lumiar,MA,-2.51657,-44.1019
neopolis,SE,-10.3215,-36.585
ipubi,PE,-7.64505,-40.1476
jequitiba,MG,-19.2345,-44.0304
ipu,CE,-4.31748,-40.7059
paraiso do tocantins,TO,-10.175,-48.8823
piedade do rio grande,MG,-21.469,-44.1938
silvania,GO,-16.66,-48.6083
cachoeira,BA,-12.5994,-38.9587
itapecuru mirim,MA,-3.40202,-44.3508
alto do rodrigues,RN,-5.28186,-36.75
severiano melo,RN,-5.77666,-37.957
ortigueira,PR,-24.2058,-50.9185
sao cristovao,SE,-11.0084,-37.2044
barra de guabiraba,PE,-8.42075,-35.6585
sao geraldo da piedade,MG,-18.8411,-42.2867
herval d'oeste,SC,-27.1903,-51.4917
bemposta,RJ,,
alto jequitiba,MG,-20.4208,-41.967
estrela,RS,-29.5002,-51.9495
lagoa da confusao,TO,-10.7906,-49.6199
fervedouro,MG,-20.726,-42.279
mirinzal,MA,-2.07094,-44.7787
juruena,MT,-10.3178,-58.3592
iguatu,PR,-6.36281,-39.2892
iguatu,PR,-24.7153,-53.0827
emilianopolis,SP,-21.8314,-51.4832
capela nova,MG,-20.9179,-43.622
alfredo vasconcelos,MG,-21.1535,-43.7718
jaru,RO,-10.4318,-62.4788
tiradentes do sul,RS,-27.4022,-54.0814
virgem da lapa,MG,-16.807,-42.3431
chapada,RS,-28.0559,-53.0665
carmo do cajuru,MG,-20.1912,-44.7664
barra da estiva,BA,-13.6237,-41.3347
nova russas,CE,-4.70581,-40.5621
fortaleza dos valos,RS,-28.7986,-53.2249
barra de sao miguel,AL,-7.74603,-36.3209
barra de sao miguel,AL,-9.83842,-35.9057
ribeirao bonito,SP,-22.0685,-48.182
sao jose do cerrito,SC,-27.6602,-50.5733
chopinzinho,PR,-25.8515,-52.5173
raposo,RJ,,
tomar do geru,SE,-11.3694,-37.8433
tanque d'arca,AL,-9.53379,-36.4366
capao do cipo,RS,-28.9312,-54.5558
itirucu,BA,-13.529,-40.1472
jussari,BA,-15.192,-39.491
nova lacerda,MT,-14.4727,-59.6001
imaculada,PB,-7.3889,-37.5079
arenopolis,GO,-16.3837,-51.5563
quixeramobim,CE,-5.19067,-39.2889
camocim,CE,-2.9005,-40.8544
mutuipe,BA,-13.2284,-39.5044
japuiba,RJ,,
pomerode,SC,-26.7384,-49.1785
maranguape,CE,-3.89143,-38.6829
hidreletrica tucurui,PA,,
mariano moro,RS,-27.3568,-52.1467
zacarias,SP,-21.0506,-50.0552
muzambinho,MG,-21.3692,-46.5213
paulo jacinto,AL,-9.36792,-36.3672
riacho de santo antonio,PB,-7.68023,-36.157
bom jesus do amparo,MG,-19.7054,-43.4782
montezuma,MG,-15.1702,-42.4941
parauna,GO,-16.9463,-50.4484
oliveira,MG,-20.6982,-44.829
palmeirinha,PR,,
jacupiranga,SP,-24.6963,-48.0064
alexandria,RN,-6.40533,-38.0142
luizlandia do oeste,MG,,
sao mamede,PB,-6.92386,-37.0954
tanhacu,BA,-14.0197,-41.2473
tenente portela,RS,-27.3711,-53.7585
bady bassitt,SP,-20.9197,-49.4385
agua santa,RS,-28.1672,-52.031
santa branca,SP,-23.3933,-45.8875
nova europa,SP,-21.7765,-48.5705
guaratuba,PR,-25.8817,-48.5752
mairipotaba,GO,-17.2975,-49.4898
lobato,PR,-23.0058,-51.9524
cachoeira do campo,MG,,
serrolandia,BA,-11.4085,-40.2983
monsenhor tabosa,CE,-4.79102,-40.0646
silveiras,SP,-22.6638,-44.8522
lajeado,TO,-9.74996,-48.3565
lajeado,TO,-29.4591,-51.9644
alto rio doce,MG,-21.0281,-43.4067
redencao,CE,-8.02529,-50.0317
redencao,CE,-4.21587,-38.7277
guarara,MG,-21.7304,-43.0334
gilbues,PI,-9.83001,-45.3423
santa luzia do parua,MA,-2.51123,-45.7801
sume,PB,-7.66206,-36.884
piraquara,PR,-25.4422,-49.0624
xavantina,SC,-27.0667,-52.343
brejoes,BA,-13.1039,-39.7988
morretes,PR,-25.4744,-48.8345
santa helena de minas,MG,-16.9707,-40.6727
ribeirao cascalheira,MT,-12.9367,-51.8244
moju,PA,-1.88993,-48.7668
rodeio bonito,RS,-27.4742,-53.1706
carmo da cachoeira,MG,-21.4633,-45.2201
itaporanga,SP,-23.7043,-49.4819
itaporanga,SP,-7.30202,-38.1504
mondai,SC,-27.1008,-53.4032
itaicaba,CE,-4.67146,-37.833
tupandi,RS,-29.4772,-51.4174
saude,BA,-10.9428,-40.4155
sao romao,MG,-16.3641,-45.0749
brodowski,SP,-20.9845,-47.6572
propria,SE,-10.2138,-36.8442
machadinho d'oeste,RO,-9.44363,-61.9818
santo amaro de campos,RJ,,
pentecoste,CE,-3.79274,-39.2692
fatima do sul,MS,-22.3789,-54.5131
ibiracatu,MG,-15.6605,-44.1667
vanini,RS,-28.4758,-51.8447
candeias do jamari,RO,-8.7907,-63.7005
nova trento,SC,-27.278,-48.9298
santa rita do ibitipoca,MG,,
palmares do sul,RS,-30.2535,-50.5103
sao goncalo do amarante,CE,-5.79068,-35.3257
sao goncalo do amarante,CE,-3.60515,-38.9726
alfredo wagner,SC,-27.7001,-49.3273
rio do pires,BA,-13.1185,-42.2902
marechal floriano,ES,-20.4159,-40.67
imbau,PR,-24.448,-50.7533
jaguari,RS,-29.4936,-54.703
ibaiti,PR,-23.8478,-50.1932
ponte serrada,SC,-26.8733,-52.0112
santa helena,PR,-24.8585,-54.336
santa helena,PR,-26.937,-53.6214
santa helena,PR,-2.24426,-45.29
santa helena,PR,-6.7176,-38.6427
adolfo,SP,-21.2325,-49.6451
uniao do sul,MT,-11.5308,-54.3616
lapa,PR,-25.7671,-49.7168
ararangua,SC,-28.9356,-49.4918
joao neiva,ES,-19.7577,-40.386
panambi,RS,-28.2833,-53.5023
augusto correa,PA,-1.05109,-46.6147
dionisio cerqueira,SC,-26.2648,-53.6351
salinas,MG,-16.1753,-42.2964
canapolis,BA,-13.0725,-44.201
canapolis,BA,-18.7212,-49.2035
joaquim nabuco,PE,-8.62281,-35.5288
venancio aires,RS,-29.6143,-52.1932
cunha pora,SC,-26.895,-53.1662
polo petroquimico de triunfo,RS,,
sao pedro do iguacu,PR,-24.9373,-53.8521
alterosa,MG,-21.2488,-46.1387
sao paulo do potengi,RN,-5.8994,-35.7642
conceicao de macabu,RJ,-22.0834,-41.8719
senador guiomard,AC,-10.1497,-67.7362
capitao,RS,-29.2674,-51.9853
alcobaca,BA,-17.5195,-39.2036
governador eugenio barros,MA,-5.31897,-44.2469
bataipora,MS,,
pedra azul,MG,-16.0086,-41.2909
ventania,PR,-24.2458,-50.2376
iraucuba,CE,-3.74737,-39.7843
novo jardim,TO,-11.826,-46.6325
goiana,MG,-21.536,-43.1957
goiana,MG,-7.5606,-34.9959
cabo de santo agostinho,PE,-8.28218,-35.0253
ibertioga,MG,-21.433,-43.9639
sao francisco,SE,-20.3623,-50.6952
sao francisco,SE,-6.60773,-38.0968
sao francisco,SE,-10.3442,-36.8869
sao francisco,SE,-15.9514,-44.8593
nova guataporanga,SP,-21.332,-51.6447
livramento de nossa senhora,BA,-13.6369,-41.8432
extrema,RO,-22.854,-46.3178
santa maria do para,PA,-1.35392,-47.5712
martins soares,MG,-20.2546,-41.8786
simao dias,SE,-10.7387,-37.8097
centralina,MG,-18.5852,-49.2014
cambuquira,MG,-21.854,-45.2896
catarina,CE,-6.12291,-39.8736
igaracu do tiete,SP,-22.509,-48.5597
santo antonio do amparo,MG,-20.943,-44.9176
moreilandia,PE,-7.61931,-39.546
belo jardim,PE,-8.3313,-36.4258
goianesia,GO,-15.3118,-49.1162
perola,PR,-23.8039,-53.6834
bataguassu,MS,-21.7159,-52.4221
cantagalo,PR,-21.9797,-42.3664
cantagalo,PR,-25.3734,-52.1198
cantagalo,PR,-18.5248,-42.6223
nova fatima,PR,-23.4324,-50.5665
nova fatima,PR,-11.6031,-39.6302
dionisio,MG,-19.8433,-42.7701
suzanapolis,SP,-20.4981,-51.0268
horizontina,RS,-27.6282,-54.3053
belem,PB,-1.4554,-48.4898
belem,PB,-6.74261,-35.5166
belem,PB,-9.57047,-36.4904
glorinha,RS,-29.8798,-50.7734
monteiropolis,AL,-9.60357,-37.2505
areado,MG,-21.3572,-46.1421
apodi,RN,-5.65349,-37.7946
rio das flores,RJ,-22.1692,-43.5856
taquarana,AL,-9.64529,-36.4928
morro reuter,RS,-29.5379,-51.0811
taquara,RS,-29.6505,-50.7753
werneck,RJ,,
rancho alegre,PR,-23.0676,-50.9145
colorado,PR,-28.5258,-52.9928
colorado,PR,-22.8374,-51.9743
corupa,SC,-26.4246,-49.246
cristais paulista,SP,-20.4036,-47.4209
tibagi,PR,-24.5153,-50.4176
nova hartz,RS,-29.5808,-50.9051
tapejara,PR,-23.7315,-52.8735
tapejara,PR,-28.0652,-52.0097
nova mamore,RO,-10.4077,-65.3346
castanheiras,RO,-11.4253,-61.9482
irape,SP,,
casa branca,SP,-21.7708,-47.0852
estrela do norte,SP,-13.8665,-49.0716
estrela do norte,SP,-22.4859,-51.6632
sao joao batista,SC,-2.95398,-44.7953
sao joao batista,SC,-27.2772,-48.8474
breu branco,PA,-3.77191,-49.5735
imbituva,PR,-25.2285,-50.5989
bela cruz,CE,-3.04996,-40.1671
antonio pereira,MG,,
abadia dos dourados,MG,-18.4831,-47.3916
canavieiras,BA,-15.6722,-38.9536
nova olimpia,MT,-23.4703,-53.0898
nova olimpia,MT,-14.7889,-57.2886
conceicao das alagoas,MG,-19.9172,-48.3839
piratuba,SC,-27.4242,-51.7668
ubaitaba,BA,-14.303,-39.3222
chiapetta,RS,-27.923,-53.9419
nova bandeirantes,MT,-9.84977,-57.8139
guarda-mor,MG,-17.7673,-47.0998
alfredo marcondes,SP,-21.9527,-51.414
viana,MA,-20.3825,-40.4933
viana,MA,-3.20451,-44.9912
santo antonio do aracangua,SP,-20.9331,-50.498
rancho alegre d'oeste,PR,-24.3065,-52.9552
eneas marques,PR,-25.9445,-53.1659
iuna,ES,-20.3531,-41.5334
tomazina,PR,-23.7796,-49.9499
santa rita do itueto,MG,-19.3576,-41.3821
barreiros,PE,-8.81605,-35.1832
aguas frias,SC,-26.8794,-52.8568
afogados da ingazeira,PE,-7.74312,-37.631
bonito,PE,-8.47163,-35.7292
bonito,PE,-11.9668,-41.2647
bonito,PE,-1.36745,-47.3066
bonito,PE,-21.1261,-56.4836
ocara,CE,-4.48523,-38.5933
nova vicosa,BA,-17.8926,-39.3743
crixas,GO,-14.5412,-49.974
pombal,PB,-6.76606,-37.8003
itanhomi,MG,-19.1736,-41.863
clevelandia,PR,-26.4043,-52.3508
piacabucu,AL,-10.406,-36.434
sao carlos do ivai,PR,-23.3158,-52.4761
mambore,PR,-24.317,-52.5271
sao domingos,SC,-11.4649,-39.5268
sao domingos,SC,-26.5548,-52.5313
sao domingos,SC,-6.80313,-37.9488
sao domingos,SC,-10.7916,-37.5685
sao domingos,SC,-13.621,-46.7415
tracuateua,PA,-1.07653,-46.9031
extremoz,RN,-5.70143,-35.3048
iramaia,BA,-13.2902,-40.9595
alhandra,PB,-7.42977,-34.9057
serio,RS,-29.3904,-52.2685
itapui,SP,-22.2324,-48.7197
santa cruz de minas,MG,-21.1241,-44.2202
catole do rocha,PB,-6.34062,-37.747
sao jose do goiabal,MG,-19.9214,-42.7035
sao domingos do norte,ES,-19.1452,-40.6281
diogo de vasconcelos,MG,-20.4879,-43.1953
abaiara,CE,-7.34588,-39.0416
agronomica,SC,-27.2662,-49.708
ewbank da camara,MG,-21.5498,-43.5068
amaraji,PE,-8.37691,-35.4501
capivari de baixo,SC,-28.4498,-48.9631
vista alegre do alto,SP,-21.1692,-48.6284
conceicao,PB,-7.55106,-38.5014
serra talhada,PE,-7.98178,-38.289
eldorado,MS,-23.7868,-54.2838
eldorado,MS,-24.5281,-48.1141
macatuba,SP,-22.5002,-48.7102
cerro largo,RS,-28.1463,-54.7428
paranaiguara,GO,-18.9141,-50.6539
borda da mata,MG,-22.2707,-46.1653
capitao andrade,MG,-19.0748,-41.8614
candido mendes,MA,-1.43265,-45.7161
reginopolis,SP,-21.8914,-49.2268
colorado do oeste,RO,-13.1174,-60.5454
rifaina,SP,-20.0803,-47.4291
itaipulandia,PR,-25.1366,-54.3001
frei rogerio,SC,-27.175,-50.8076
sao pedro de alcantara,SC,-27.5665,-48.8048
custodia,PE,-8.08546,-37.6443
teixeiras,MG,-20.6561,-42.8564
bom jesus do tocantins,PA,-5.0424,-48.6047
bom jesus do tocantins,PA,-8.96306,-48.165
ibira,SP,-21.083,-49.2448
caraubas,RN,-5.78387,-37.5586
caraubas,RN,-7.72049,-36.492
correntina,BA,-13.3477,-44.6333
florestal,MG,-19.888,-44.4318
lagoa formosa,MG,-18.7715,-46.4012
queimadas,PB,-7.35029,-35.9031
queimadas,PB,-10.9736,-39.6293
sao manuel,SP,-22.7321,-48.5723
mirandiba,PE,-8.12113,-38.7388
grajau,MA,-5.81367,-46.1462
pontes e lacerda,MT,-15.2219,-59.3435
castelandia,GO,-18.0921,-50.203
barroso,MG,-21.1907,-43.972
olho d'agua das flores,AL,-9.53686,-37.2971
severinia,SP,-20.8108,-48.8054
sacramento,MG,-19.8622,-47.4508
guimarania,MG,-18.8425,-46.7901
carius,CE,-6.52428,-39.4916
arroio trinta,SC,-26.9257,-51.3407
botupora,BA,-13.3772,-42.5163
parobe,RS,-29.6243,-50.8312
iraquara,BA,-12.2429,-41.6155
sao joao do triunfo,PR,-25.683,-50.2949
fronteiras,PI,-7.08173,-40.6146
mar de espanha,MG,-21.8707,-43.0062
sales,SP,-21.3427,-49.4897
matelandia,PR,-25.2496,-53.9935
sertanopolis,PR,-23.0571,-51.0399
aiuruoca,MG,-21.9736,-44.6042
pacoti,CE,-4.22492,-38.922
glicerio,SP,-21.3812,-50.2123
crissiumal,RS,-27.4999,-54.0994
portelandia,GO,-17.3554,-52.6799
mendonca,SP,-21.1757,-49.5791
campos gerais,MG,-21.237,-45.7569
sao joao do ivai,PR,-23.9833,-51.8215
boquim,SE,-11.1397,-37.6195
chapadao do sul,MS,-18.788,-52.6263
cameta,PA,-2.24295,-49.4979
pedra do indaia,MG,-20.2563,-45.2107
edeia,GO,-17.3406,-49.9295
tobias barreto,SE,-11.1798,-37.9995
porto estrela,MT,-15.3235,-57.2204
pouso alto,MG,-22.1964,-44.9748
serra do salitre,MG,-19.1083,-46.6961
galvao,SC,-26.4549,-52.6875
quijingue,BA,-10.7505,-39.2137
cabo verde,MG,-21.4699,-46.3919
vargem alegre,RJ,-19.5988,-42.2949
seabra,BA,-12.4169,-41.7722
japura,PR,-23.4693,-52.5557
japura,PR,-1.88237,-66.9291
cruzeiro do sul,AC,-22.9624,-52.1622
cruzeiro do sul,AC,-29.5148,-51.9928
cruzeiro do sul,AC,-7.62762,-72.6756
moema,MG,-19.8387,-45.4127
roncador,PR,-24.5958,-52.2716
serra dos dourados,PR,,
bertolinia,PI,-7.63338,-43.9498
lagoa da canoa,AL,-9.83291,-36.7413
inhuma,PI,-6.665,-41.7041
agudo,RS,-29.6447,-53.2515
coremas,PB,-7.00712,-37.9346
angelina,SC,-27.5704,-48.9879
teofilandia,BA,-11.4827,-38.9913
dom pedro,MA,-5.03518,-44.4409
avelar,RJ,,
saloa,PE,-8.9723,-36.691
rio piracicaba,MG,-19.9284,-43.1829
vitorino freire,MA,-4.28184,-45.2505
biritiba-mirim,SP,-23.5698,-46.0407
vigia,PA,-0.861194,-48.1386
serranopolis,GO,-18.3067,-51.9586
alto horizonte,GO,-14.1978,-49.3378
ibiaca,RS,-28.0566,-51.8599
remigio,PB,-6.94992,-35.8011
sidrolandia,MS,-20.9302,-54.9692
sao joao dos patos,MA,-6.4934,-43.7036
jose de freitas,PI,-4.75146,-42.5746
sao joao do paraiso,RJ,-15.3168,-42.0213
sao joao do paraiso,RJ,-6.45634,-47.0594
pedro canario,ES,-18.3004,-39.9574
turvolandia,MG,-21.8733,-45.7859
sao joao do sul,SC,-29.2154,-49.8094
guamare,RN,-5.10619,-36.3222
itaquirai,MS,-23.4779,-54.187
itariri,SP,-24.2834,-47.1736
balneario arroio do silva,SC,-28.9806,-49.4237
baependi,MG,-21.957,-44.8874
espigao alto do iguacu,PR,-25.4216,-52.8348
brasilandia de minas,MG,-16.9999,-46.0081
paraty,RJ,-23.2221,-44.7175
indiana,SP,-22.1738,-51.2555
santa juliana,MG,-19.3108,-47.5322
paripueira,AL,-9.46313,-35.552
brazabrantes,GO,-16.4281,-49.3863
pecanha,MG,-18.5441,-42.5583
sulina,PR,-25.7066,-52.7299
itobi,SP,-21.7309,-46.9743
tupancireta,RS,-29.0858,-53.8445
delmiro gouveia,AL,-9.38534,-37.9987
rio de contas,BA,-13.5852,-41.8048
porto acre,AC,-9.58138,-67.5478
esperantina,PI,-5.36593,-48.5378
esperantina,PI,-3.88863,-42.2324
icapui,CE,-4.71206,-37.3531
mandaguacu,PR,-23.3458,-52.0944
barao de cocais,MG,-19.9389,-43.4755
cerro grande,RS,-27.6106,-53.1672
ressaquinha,MG,-21.0642,-43.7598
sud mennucci,SP,-20.6872,-50.9238
alto garcas,MT,-16.9462,-53.5272
simolandia,GO,-14.4644,-46.4847
santa rita,MA,-3.14241,-44.3211
santa rita,MA,-7.11724,-34.9753
tapiramuta,BA,-11.8475,-40.7927
jose da penha,RN,-6.31095,-38.2823
alto parnaiba,MA,-9.10273,-45.9303
machados,PE,-7.68827,-35.5114
riacho de santana,BA,-6.25139,-38.3116
riacho de santana,BA,-13.6059,-42.9397
pedregulho,SP,-20.2535,-47.4775
itambacuri,MG,-18.035,-41.683
taquari,RS,-29.7943,-51.8653
uniao de minas,MG,-19.5299,-50.338
penaforte,CE,-7.82163,-39.0707
itauba,MT,-11.0614,-55.2766
aparecida do rio negro,TO,-9.94139,-47.9638
luzilandia,PI,-3.4683,-42.3718
ilha de itamaraca,PE,-7.74766,-34.8303
getulio vargas,RS,-27.8911,-52.2294
espinosa,MG,-14.9249,-42.809
porteirinha,MG,-15.7404,-43.0281
dores de campos,MG,-21.1139,-44.0207
baturite,CE,-4.32598,-38.8812
rio acima,MG,-20.0876,-43.7878
frei gaspar,MG,-18.0709,-41.4325
santa luzia do norte,AL,-9.6037,-35.8232
tres fronteiras,SP,-20.2344,-50.8905
jumirim,SP,-23.0884,-47.7868
pompeu,MG,-19.2257,-45.0141
mariluz,PR,-24.0089,-53.1432
barracao,RS,-27.6739,-51.4585
barracao,RS,-26.2502,-53.6324
quatro bocas,PA,,
tres forquilhas,RS,-29.5384,-50.0708
wagner,BA,-12.2819,-41.1715
aurilandia,GO,-16.6773,-50.4641
nao-me-toque,RS,-28.4548,-52.8182
frutuoso gomes,RN,-6.15669,-37.8375
matoes do norte,MA,-3.6244,-44.5468
paraipaba,CE,-3.43799,-39.1479
pedro gomes,MS,-18.0996,-54.5507
sao francisco,PB,-20.3623,-50.6952
sao francisco,PB,-6.60773,-38.0968
sao francisco,PB,-10.3442,-36.8869
sao francisco,PB,-15.9514,-44.8593
santa clara d'oeste,SP,-20.09,-50.9491
aparecida d'oeste,SP,-20.4487,-50.8835
angical do piaui,PI,-6.08786,-42.74
reserva,PR,-24.6492,-50.8466
sao pedro do turvo,SP,-22.7453,-49.7428
pindorama do tocantins,TO,-11.1311,-47.5726
eliseu martins,PI,-8.09629,-43.6705
nova canaa paulista,SP,-20.3836,-50.9483
jardim,MS,-7.57599,-39.2826
jardim,MS,-21.4799,-56.1489
sabinopolis,MG,-18.6653,-43.0752
imbe de minas,MG,-19.6017,-41.9695
sete barras,SP,-24.382,-47.9279
sobradinho,RS,-9.45024,-40.8145
sobradinho,RS,-29.4194,-53.0326
rolim de moura,RO,-11.7271,-61.7714
conceicao da feira,BA,-12.5078,-38.9978
maravilha,AL,-9.23045,-37.3524
maravilha,AL,-26.7665,-53.1737
sao vicente,RN,-23.9574,-46.3883
sao vicente,RN,-6.21893,-36.6827
praia grande,SC,-24.0084,-46.4121
praia grande,SC,-29.1918,-49.9525
sao bento,PB,-6.48529,-37.4488
sao bento,PB,-2.69781,-44.8289
itaguacu,ES,-19.8018,-40.8601
potengi,CE,-7.09154,-40.0233
anchieta,SC,-26.5382,-53.3319
anchieta,SC,-20.7955,-40.6425
jussiape,BA,-13.5155,-41.5882
gastao vidigal,SP,-20.7948,-50.1912
rincao,SP,-21.5894,-48.0728
cachoeira dourada,GO,-18.4859,-49.4766
cachoeira dourada,GO,-18.5161,-49.5039
tuparetama,PE,-7.6003,-37.3165
guara,DF,-20.4302,-47.8236
abre campo,MG,-20.2996,-42.4743
bonito,MS,-8.47163,-35.7292
bonito,MS,-11.9668,-41.2647
bonito,MS,-1.36745,-47.3066
bonito,MS,-21.1261,-56.4836
terra roxa,PR,-24.1575,-54.0988
terra roxa,PR,-20.787,-48.3314
california,PR,-23.6566,-51.3574
jose bonifacio,SP,-21.0551,-49.6892
jenipapo de minas,MG,-17.0831,-42.2589
ilhota,SC,-26.9023,-48.8251
serranopolis do iguacu,PR,-25.3799,-54.0518
alto bela vista,SC,-27.4333,-51.9044
santana do acarau,CE,-3.46144,-40.2118
deodapolis,MS,-22.2763,-54.1682
mampituba,RS,-29.2136,-49.9311
poloni,SP,-20.7829,-49.8258
boa esperanca,PR,-24.2467,-52.7876
boa esperanca,PR,-21.0927,-45.5612
boa esperanca,PR,-18.5395,-40.3025
alvarenga,MG,-19.4174,-41.7317
regente feijo,SP,-22.2181,-51.3055
cruzalia,SP,-22.7373,-50.7909
rio negrinho,SC,-26.2591,-49.5177
sao miguel,RN,-6.20283,-38.4947
fronteira,MG,-20.2748,-49.1984
diamante do norte,PR,-22.655,-52.8617
nossa senhora das gracas,PR,-22.9129,-51.7978
arinos,MG,-15.9187,-46.1043
mandaguari,PR,-23.5446,-51.671
ibotirama,BA,-12.1779,-43.2167
nacip raydan,MG,-18.4544,-42.2481
porto trombetas,PA,,
sao francisco de paula,RS,-29.4404,-50.5828
sao francisco de paula,RS,-20.7036,-44.9838
serra azul de minas,MG,-18.3602,-43.1675
lucianopolis,SP,-22.4294,-49.522
sao mateus de minas,MG,,
madre de deus de minas,MG,-21.483,-44.3287
alpinopolis,MG,-20.8631,-46.3878
miranorte,TO,-9.52907,-48.5922
joselandia,MA,-4.98611,-44.6958
limeira do oeste,MG,-19.5512,-50.5815
luiz alves,SC,-26.7151,-48.9322
perdoes,MG,-21.0932,-45.0896
urubici,SC,-28.0157,-49.5925
icarai de minas,MG,-16.214,-44.9034
jacunda,PA,-4.44617,-49.1153
itapemirim,ES,-21.0095,-40.8307
santo antonio dos campos,MG,,
travessao,RJ,,
santo antonio da alegria,SP,-21.0864,-47.1464
piumhi,MG,-20.4762,-45.9589
colinas do tocantins,TO,-8.05764,-48.4757
corinto,MG,-18.369,-44.4542
irece,BA,-11.3033,-41.8535
sao carlos,SC,-22.0174,-47.886
sao carlos,SC,-27.0798,-53.0037
combinado,TO,-12.7917,-46.5388
floreal,SP,-20.6752,-50.1513
urucui,PI,-7.23944,-44.5577
ariranha,SP,-21.1872,-48.7904
corrente,PI,-10.4333,-45.1633
turvo,SC,-25.0437,-51.5282
turvo,SC,-28.9272,-49.6831
gameleira,PE,-8.5798,-35.3846
pontalinda,SP,-20.4396,-50.5258
lagoa dos tres cantos,RS,-28.5676,-52.8618
potim,SP,-22.8343,-45.2552
sao bernardino,SC,-26.4739,-52.9687
durande,MG,-20.2058,-41.7977
piacatu,SP,-21.5921,-50.6003
jardim do serido,RN,-6.58047,-36.7736
itapura,SP,-20.6419,-51.5063
charrua,RS,-27.9493,-52.015
desterro do melo,MG,-21.143,-43.5178
piripiri,PI,-4.27157,-41.7716
cacequi,RS,-29.8883,-54.822
soledade,RS,-7.05829,-36.3668
soledade,RS,-28.8306,-52.5131
piata,BA,-13.1465,-41.7702
irani,SC,-27.0287,-51.9012
morpara,BA,-11.5569,-43.2766
cabrobo,PE,-8.50548,-39.3094
santa margarida,PR,-20.3839,-42.2519
serra de sao bento,RN,-6.41762,-35.7033
cambira,PR,-23.589,-51.5792
inconfidentes,MG,-22.3136,-46.3264
felixlandia,MG,-18.7507,-44.9004
monte formoso,MG,-16.8691,-41.2473
clementina,SP,-21.5604,-50.4525
ribeirao do sul,SP,-22.789,-49.933
confresa,MT,-10.6437,-51.5699
batalha,AL,-4.0223,-42.0787
batalha,AL,-9.6742,-37.133
bom retiro do sul,RS,-29.6071,-51.9456
maximiliano de almeida,RS,-27.6325,-51.802
manduri,SP,-23.0056,-49.3202
santo antonio do palma,RS,-28.4956,-52.0267
vera cruz do oeste,PR,-25.0577,-53.8771
varjota,CE,-4.19387,-40.4741
grao para,SC,-28.1809,-49.2252
muliterno,RS,-28.3253,-51.7697
cansancao,BA,-10.6647,-39.4944
candido de abreu,PR,-24.5649,-51.3372
marco,CE,-3.1285,-40.1582
manaira,PB,-7.70331,-38.1523
condado,PE,-6.89831,-37.606
condado,PE,-7.58787,-35.0999
coracao de jesus,MG,-16.6841,-44.3635
dois riachos,AL,-9.38465,-37.0965
ibicarai,BA,-14.8579,-39.5914
buerarema,BA,-14.9595,-39.3028
urai,PR,-23.2,-50.7939
alagoa,MG,-22.171,-44.6413
jaiba,MG,-15.3432,-43.6688
ituacu,BA,-13.8107,-41.3003
corrego danta,MG,-19.8198,-45.9032
uchoa,SP,-20.9511,-49.1713
careacu,MG,-22.0424,-45.696
pien,PR,-26.0965,-49.4336
grupiara,MG,-18.5003,-47.7318
paulo de faria,SP,-20.0296,-49.4
ipua,SP,-20.4438,-48.0129
pindoba,AL,-9.47382,-36.2918
lontras,SC,-27.1684,-49.535
florida paulista,SP,-21.6127,-51.1724
macuco,RJ,-21.9813,-42.2533
periquito,MG,-19.1573,-42.2333
pareci novo,RS,-29.6365,-51.3974
guaraquecaba,PR,-25.3071,-48.3204
japaratuba,SE,-10.5849,-36.9418
santa rita de caldas,MG,-22.0292,-46.3385
patu,RN,-6.10656,-37.6356
tucano,BA,-10.9584,-38.7894
sao felix do coribe,BA,-13.4019,-44.1837
mato rico,PR,-24.6995,-52.1454
pedrinopolis,MG,-19.2241,-47.4579
caiaponia,GO,-16.9539,-51.8091
carlopolis,PR,-23.4269,-49.7235
herval,RS,-32.024,-53.3944
caico,RN,-6.45441,-37.1067
rodolfo fernandes,RN,-5.78393,-38.0579
sao joao do paraiso,MG,-15.3168,-42.0213
sao joao do paraiso,MG,-6.45634,-47.0594
amambai,MS,-23.1058,-55.2253
simao pereira,MG,-21.964,-43.3088
queixada,MG,,
governador dix-sept rosado,RN,-5.44887,-37.5183
belo campo,BA,-15.0334,-41.2652
dom joaquim,MG,-18.961,-43.2544
nantes,SP,-22.6156,-51.24
butia,RS,-30.1179,-51.9601
pinhalao,PR,-23.7982,-50.0536
ibiara,PB,-7.47957,-38.4059
barao de juparana,RJ,,
chale,MG,-20.0453,-41.6897
cruzeiro da fortaleza,MG,-18.944,-46.6669
silveira carvalho,MG,,
chorozinho,CE,-4.28873,-38.4986
dom feliciano,RS,-30.7004,-52.1026
populina,SP,-19.9453,-50.538
inaja,PE,-8.90206,-37.8351
inaja,PE,-22.7509,-52.1995
wanderley,BA,-12.1144,-43.8958
nova timboteua,PA,-1.20874,-47.3921
taciba,SP,-22.3866,-51.2882
jandaira,BA,-5.35211,-36.1278
jandaira,BA,-11.5616,-37.7853
sao valentim,RS,-27.5583,-52.5237
sao lourenco da serra,SP,-23.8491,-46.9432
chapada gaucha,MG,-15.3014,-45.6116
pirenopolis,GO,-15.8507,-48.9584
itapitanga,BA,-14.4139,-39.5657
itamogi,MG,-21.0758,-47.046
santo antonio do taua,PA,-1.1522,-48.1314
iaras,SP,-22.8682,-49.1634
mandirituba,PR,-25.777,-49.3282
sertao,RS,-27.9798,-52.2588
maravilhas,MG,-19.5076,-44.6779
dom aquino,MT,-15.8099,-54.9223
uruara,PA,-3.71519,-53.7396
manoel ribas,PR,-24.5144,-51.6658
barra do mendes,BA,-11.81,-42.059
sarutaia,SP,-23.2721,-49.4763
carlos chagas,MG,-17.6973,-40.7723
alvorada,TO,-12.4785,-49.1249
alvorada,TO,-29.9914,-51.0809
jari,RS,-29.2922,-54.2237
figueiropolis d'oeste,MT,-15.4439,-58.7391
timbauba,PE,-7.50484,-35.3119
orleans,SC,-28.3487,-49.2986
vila flores,RS,-28.8598,-51.5504
condor,RS,-28.2075,-53.4905
nova aurora,PR,-24.5289,-53.2575
nova aurora,PR,-18.0597,-48.2552
sucupira do norte,MA,-6.47839,-44.1919
joao ramalho,SP,-22.2473,-50.7694
matoes,MA,-5.51359,-43.2018
saboeiro,CE,-6.5346,-39.9017
itaueira,PI,-7.59989,-43.0249
caibate,RS,-28.2905,-54.6454
lamim,MG,-20.79,-43.4706
vargem,SP,-27.4867,-50.9724
vargem,SP,-22.887,-46.4124
trancoso,BA,,
presidente olegario,MG,-18.4096,-46.4165
ceres,GO,-15.3061,-49.6
iguape,SP,-24.699,-47.5537
campanha,MG,-21.836,-45.4004
antonio prado de minas,MG,-21.0192,-42.1109
couto de magalhaes,TO,,
sao joao de iracema,SP,-20.5111,-50.3561
trairi,CE,-3.26932,-39.2681
dores do rio preto,ES,-20.6931,-41.8405
taquaracu de minas,MG,-19.6652,-43.6922
telha,SE,-10.2064,-36.8818
maripa,PR,-24.42,-53.8286
cruz,CE,-2.91813,-40.176
riachinho,MG,-6.44005,-48.1371
riachinho,MG,-16.2258,-45.9888
sao joao do paraiso,MA,-15.3168,-42.0213
sao joao do paraiso,MA,-6.45634,-47.0594
itaitinga,CE,-3.96577,-38.5298
princesa isabel,PB,-7.73175,-37.9886
lidice,RJ,,
bodoquena,MS,-20.537,-56.7127
tapirai,SP,-19.8936,-46.0221
tapirai,SP,-23.9612,-47.5062
manoel viana,RS,-29.5859,-55.4841
cassilandia,MS,-19.1179,-51.7313
pendencias,RN,-5.2564,-36.7095
sao miguel do guapore,RO,-11.6953,-62.7192
benevides,PA,-1.36183,-48.2434
coimbra,MG,-20.8535,-42.8008
coqueiro baixo,RS,-29.1802,-52.0942
pedrinhas paulista,SP,-22.8174,-50.7933
itamira,BA,,
santanesia,RJ,,
ajuricaba,RS,-28.2342,-53.7757
caninde de sao francisco,SE,-9.64882,-37.7923
iracema,CE,2.18305,-61.0415
iracema,CE,-5.8124,-38.2919
apiaca,ES,-21.1523,-41.5693
guiricema,MG,-21.0098,-42.7207
presidente alves,SP,-22.0999,-49.4381
monte azul paulista,SP,-20.9065,-48.6387
pedro osorio,RS,-31.8642,-52.8184
taparuba,MG,-19.7621,-41.608
alagoa grande,PB,-7.03943,-35.6206
arandu,SP,-23.1386,-49.0487
moreira sales,PR,-24.0509,-53.0102
concordia do para,PA,-1.99238,-47.9422
carmo da mata,MG,-20.5575,-44.8735
cocal,PI,-3.47279,-41.5546
boa vista das missoes,RS,-27.6671,-53.3102
tapiratiba,SP,-21.4713,-46.7448
canitar,SP,-23.004,-49.7839
protasio alves,RS,-28.7572,-51.4757
passagem,PB,-6.27268,-35.37
passagem,PB,-7.13467,-37.0433
nossa senhora de caravaggio,SC,,
itaporanga d'ajuda,SE,-10.99,-37.3078
cristinapolis,SE,-11.4668,-37.7585
bacuri,MA,-1.6965,-45.1328
satiro dias,BA,-11.5929,-38.5938
cruzilia,MG,-21.84,-44.8067
catigua,SP,-21.0519,-49.0616
motuca,SP,-21.5103,-48.1538
goncalves dias,MA,-5.1475,-44.3013
rio dos cedros,SC,-26.7398,-49.2718
erval grande,RS,-27.3926,-52.574
imbuia,SC,-27.4908,-49.4218
minas novas,MG,-17.2156,-42.5884
pedra,PE,-8.49641,-36.94
dario meira,BA,-14.4229,-39.9031
resende costa,MG,-20.9171,-44.2407
cananeia,SP,-25.0144,-47.9341
conceicao do almeida,BA,-12.7836,-39.1715
barao do triunfo,RS,-30.3891,-51.7384
ponto dos volantes,MG,-16.7473,-41.5025
ibiraja,BA,,
campo maior,PI,-4.8217,-42.1641
barra do ribeiro,RS,-30.2939,-51.3014
abrantes,BA,,
ibipitanga,BA,-12.8804,-42.4856
sao goncalo do rio das pedras,MG,,
caarapo,MS,-22.6368,-54.8209
florinia,SP,-22.868,-50.6814
boa vista do cadeado,RS,-28.5791,-53.8108
juruaia,MG,-21.2493,-46.5735
iaciara,GO,-14.1011,-46.6335
jacutinga,RS,-27.7291,-52.5372
jacutinga,RS,-22.286,-46.6166
azurita,MG,,
nova america da colina,PR,-23.3308,-50.7168
fagundes,PB,-7.34454,-35.7931
